[{
  "name": "Alaska Career College",
  "dom": "careeracademy.net",
  "lat": "61.181439",
  "lng": "-149.856909"
}, {
  "name": "Alaska Christian College",
  "dom": "akcc.org",
  "lat": "60.49053980000001",
  "lng": "-151.1355402"
}, {
  "name": "Alaska Pacific University",
  "dom": "alaskapacific.edu",
  "lat": "61.19126600000001",
  "lng": "-149.801344"
}, {
  "name": "Alaska Vocational Technical Center",
  "dom": "avtec.labor.state.ak.us",
  "lat": "60.1110474",
  "lng": "-149.4442297"
}, {
  "name": "Charter College",
  "dom": "chartercollege.edu",
  "lat": "61.1964396",
  "lng": "-149.8392925"
}, {
  "name": "Ilisagvik College",
  "dom": "ilisagvik.cc",
  "lat": "71.29055559999999",
  "lng": "-156.7886111"
}, {
  "name": "Prince William Sound Community College",
  "dom": "pwscc.edu.",
  "lat": "61.1339227",
  "lng": "-146.3596513"
}, {
  "name": "Sheldon Jackson College",
  "dom": "sj-alaska.edu",
  "lat": "57.0504528",
  "lng": "-135.3233354"
}, {
  "name": "University of Alaska Anchorage",
  "dom": "uaa.alaska.edu",
  "lat": "61.19078219999999",
  "lng": "-149.8182731"
}, {
  "name": "University of Alaska Fairbanks",
  "dom": "uaf.edu",
  "lat": "64.8562062",
  "lng": "-147.8211833"
}, {
  "name": "University of Alaska Southeast",
  "dom": "uas.alaska.edu",
  "lat": "58.3844953",
  "lng": "-134.6392853"
}, {
  "name": "Air University",
  "dom": "au.af.mil",
  "lat": "32.3801917",
  "lng": "-86.351366"
}, {
  "name": "Air University Extension Course Program",
  "dom": "maxwell.af.mil",
  "lat": "32.3850023",
  "lng": "-86.26539869999999"
}, {
  "name": "Alabama A & M University",
  "dom": "aamu.edu",
  "lat": "34.785058",
  "lng": "-86.57328299999999"
}, {
  "name": "Alabama Aviation College",
  "dom": "aviation.eocc.edu",
  "lat": "31.5174226",
  "lng": "-85.7095418"
}, {
  "name": "Alabama Southern Community College",
  "dom": "ascc.edu",
  "lat": "31.4803915",
  "lng": "-87.332821"
}, {
  "name": "Alabama State University",
  "dom": "alasu.edu",
  "lat": "32.366287",
  "lng": "-86.296902"
}, {
  "name": "Amridge University",
  "dom": "amridgeuniversity.edu",
  "lat": "32.3626934",
  "lng": "-86.1740338"
}, {
  "name": "Athens State University",
  "dom": "athens.edu",
  "lat": "34.8059635",
  "lng": "-86.9675331"
}, {
  "name": "Auburn University Main Campus",
  "dom": "auburn.edu",
  "lat": "32.5933574",
  "lng": "-85.4951663"
}, {
  "name": "Auburn University-Montgomery",
  "dom": "aum.edu",
  "lat": "32.3676046",
  "lng": "-86.1738001"
}, {
  "name": "Bevill State Community College",
  "dom": "bscc.edu",
  "lat": "33.7464336",
  "lng": "-87.04954289999999"
}, {
  "name": "Birmingham Southern College",
  "dom": "bsc.edu",
  "lat": "33.5162595",
  "lng": "-86.8509948"
}, {
  "name": "Bishop State Community College",
  "dom": "bishop.edu",
  "lat": "30.695495",
  "lng": "-88.05565299999999"
}, {
  "name": "Blue Cliff Career College",
  "dom": "BLUECLIFFMASSAGE.COM",
  "lat": "30.66979599999999",
  "lng": "-88.114313"
}, {
  "name": "Cardiac & Vascular Institute of Ultrasound",
  "dom": "ultrasound.edu",
  "lat": "30.649352",
  "lng": "-88.111774"
}, {
  "name": "Central Alabama Community College",
  "dom": "cacc.edu",
  "lat": "32.924578",
  "lng": "-85.9470712"
}, {
  "name": "Chattahoochee Valley Community College",
  "dom": "cv.edu",
  "lat": "32.4244565",
  "lng": "-85.0323129"
}, {
  "name": "Columbia Southern University",
  "dom": "columbiasouthern.edu",
  "lat": "30.32896",
  "lng": "-87.651292"
}, {
  "name": "Concordia College Alabama",
  "dom": "concordiaselma.edu",
  "lat": "32.4254",
  "lng": "-87.01769999999999"
}, {
  "name": "Covert & Associates Dale Carnegie Training",
  "dom": "birmingham.dale-carnegie.com",
  "lat": "34.76242939999999",
  "lng": "-86.6913222"
}, {
  "name": "DCH Regional Medical Center",
  "dom": "dchsystem.com",
  "lat": "33.205212",
  "lng": "-87.525457"
}, {
  "name": "Enterprise State Community College",
  "dom": "escc.edu",
  "lat": "31.2587755",
  "lng": "-85.8066238"
}, {
  "name": "Faulkner University",
  "dom": "faulkner.edu",
  "lat": "32.38258",
  "lng": "-86.218042"
}, {
  "name": "Fortis College - Mobile",
  "dom": "cappscollege.edu",
  "lat": "30.662175",
  "lng": "-88.135283"
}, {
  "name": "Gadsden Business College",
  "dom": "gadsdenbusinesscollege.com",
  "lat": "33.962698",
  "lng": "-86.035747"
}, {
  "name": "Gadsden State Community College",
  "dom": "gadsdenstate.edu",
  "lat": "33.9952723",
  "lng": "-85.9900435"
}, {
  "name": "George C Wallace Community College - Dothan",
  "dom": "wallace.edu",
  "lat": "31.315923",
  "lng": "-85.467964"
}, {
  "name": "George Corley Wallace State Community College - Selma",
  "dom": "wccs.edu",
  "lat": "32.4382015",
  "lng": "-87.01449749999999"
}, {
  "name": "H Councill Trenholm State Technical College",
  "dom": "trenholmstate.edu",
  "lat": "32.350042",
  "lng": "-86.34314599999999"
}, {
  "name": "Heritage Christian University",
  "dom": "hcu.edu",
  "lat": "34.8561377",
  "lng": "-87.66298359999999"
}, {
  "name": "Huntingdon College",
  "dom": "huntingdon.edu",
  "lat": "32.349981",
  "lng": "-86.28495099999999"
}, {
  "name": "Huntsville Bible College",
  "dom": "hbc1.edu",
  "lat": "34.750345",
  "lng": "-86.59462300000001"
}, {
  "name": "J F Ingram State Technical College",
  "dom": "ingram.cc.al.us",
  "lat": "32.5812505",
  "lng": "-86.3910037"
}, {
  "name": "J.F. Drake State Community and Technical College",
  "dom": "drakestate.edu",
  "lat": "34.7707819",
  "lng": "-86.575943"
}, {
  "name": "Jacksonville State University",
  "dom": "jsu.edu",
  "lat": "33.82351510000001",
  "lng": "-85.7633486"
}, {
  "name": "James H Faulkner State Community College",
  "dom": "faulknerstate.edu",
  "lat": "30.854052",
  "lng": "-87.77926599999999"
}, {
  "name": "Jefferson Davis Community College",
  "dom": "jdcc.edu",
  "lat": "31.1007454",
  "lng": "-87.0847963"
}, {
  "name": "Jefferson State Community College",
  "dom": "jeffstateonline.com",
  "lat": "33.651507",
  "lng": "-86.708243"
}, {
  "name": "John C Calhoun State Community College",
  "dom": "calhoun.edu",
  "lat": "34.648405",
  "lng": "-86.9504032"
}, {
  "name": "Judson College",
  "dom": "judson.edu",
  "lat": "32.6309212",
  "lng": "-87.3167017"
}, {
  "name": "Lurleen B Wallace Community College",
  "dom": "lbwcc.edu",
  "lat": "31.3085039",
  "lng": "-86.48329129999999"
}, {
  "name": "Marion Military Institute",
  "dom": "marionmilitary.edu",
  "lat": "32.6247239",
  "lng": "-87.3185008"
}, {
  "name": "Miles College",
  "dom": "miles.edu",
  "lat": "33.480831",
  "lng": "-86.90826799999999"
}, {
  "name": "Montgomery Job Corps Center",
  "dom": "montgomery.jobcorps.gov",
  "lat": "32.3552043",
  "lng": "-86.34035109999999"
}, {
  "name": "Northeast Alabama Community College",
  "dom": "nacc.edu",
  "lat": "34.4949001",
  "lng": "-85.84888219999999"
}, {
  "name": "Northwest-Shoals Community College - Muscle Shoals",
  "dom": "nwscc.edu",
  "lat": "34.7397565",
  "lng": "-87.6793831"
}, {
  "name": "Oakwood University",
  "dom": "oakwood.edu",
  "lat": "34.7526074",
  "lng": "-86.64838209999999"
}, {
  "name": "Prince Institute - Southeast",
  "dom": "princeinstitute.com",
  "lat": "32.383102",
  "lng": "-86.1623989"
}, {
  "name": "Reid State Technical College",
  "dom": "rstc.cc.al.us",
  "lat": "31.45696",
  "lng": "-86.96659509999999"
}, {
  "name": "Samford University",
  "dom": "samford.edu",
  "lat": "33.4632615",
  "lng": "-86.79017789999999"
}, {
  "name": "Selma University",
  "dom": "selmauniversity.org",
  "lat": "32.4204999",
  "lng": "-87.03489990000001"
}, {
  "name": "Shelton State Community College",
  "dom": "sheltonstate.edu",
  "lat": "33.1196984",
  "lng": "-87.561636"
}, {
  "name": "Snead State Community College",
  "dom": "snead.edu",
  "lat": "34.2008098",
  "lng": "-86.1681036"
}, {
  "name": "South University-Montgomery",
  "dom": "southuniversity.edu",
  "lat": "32.342729",
  "lng": "-86.216402"
}, {
  "name": "Southeastern Bible College",
  "dom": "sebc.edu",
  "lat": "33.378764",
  "lng": "-86.74976099999999"
}, {
  "name": "Southeastern School of Cosmetology",
  "dom": "southeasternschoolofcosmetology.com",
  "lat": "33.4805883",
  "lng": "-86.8436613"
}, {
  "name": "Southern Community College",
  "dom": "SOUTHERNCOMMUNITYCOLLEGE.ORG",
  "lat": "32.4227454",
  "lng": "-85.6897233"
}, {
  "name": "Southern Union State Community College",
  "dom": "suscc.edu",
  "lat": "33.1265269",
  "lng": "-85.571373"
}, {
  "name": "Spring Hill College",
  "dom": "shc.edu",
  "lat": "30.6869366",
  "lng": "-88.13549189999999"
}, {
  "name": "Stillman College",
  "dom": "stillman.edu",
  "lat": "33.2008895",
  "lng": "-87.58289889999999"
}, {
  "name": "T.A. Lawson State Community College",
  "dom": "lawsonstate.edu",
  "lat": "33.4510099",
  "lng": "-86.88955"
}, {
  "name": "Talladega College",
  "dom": "talladega.edu",
  "lat": "33.4327519",
  "lng": "-86.1135613"
}, {
  "name": "The Hair Academy LLC",
  "dom": "thehairacademyllc.com",
  "lat": "32.337425",
  "lng": "-86.256885"
}, {
  "name": "The University of Alabama",
  "dom": "ua.edu",
  "lat": "33.2095116",
  "lng": "-87.54608449999999"
}, {
  "name": "Troy University",
  "dom": "troy.edu",
  "lat": "31.7987423",
  "lng": "-85.9568249"
}, {
  "name": "Tuscaloosa VAMC Psychology Internship",
  "dom": "tuscaloosa.va.gov",
  "lat": "33.1908",
  "lng": "-87.48649999999999"
}, {
  "name": "Tuskegee University",
  "dom": "tuskegee.edu",
  "lat": "32.4166571",
  "lng": "-85.717941"
}, {
  "name": "United States Sports Academy",
  "dom": "ussa.edu",
  "lat": "30.640039",
  "lng": "-87.9120142"
}, {
  "name": "University of Alabama at Birmingham",
  "dom": "uab.edu",
  "lat": "33.5068662",
  "lng": "-86.8092209"
}, {
  "name": "University of Alabama in Huntsville",
  "dom": "uah.edu",
  "lat": "34.724132",
  "lng": "-86.64124369999999"
}, {
  "name": "University of Mobile",
  "dom": "umobile.edu",
  "lat": "30.6935136",
  "lng": "-88.1598447"
}, {
  "name": "University of Montevallo",
  "dom": "montevallo.edu",
  "lat": "33.5350615",
  "lng": "-86.5660626"
}, {
  "name": "University of North Alabama",
  "dom": "una.edu",
  "lat": "34.8085546",
  "lng": "-87.6791473"
}, {
  "name": "University of South Alabama",
  "dom": "usouthal.edu",
  "lat": "30.6953879",
  "lng": "-88.1738972"
}, {
  "name": "University of West Alabama",
  "dom": "uwa.edu",
  "lat": "32.594907",
  "lng": "-88.1829284"
}, {
  "name": "Virginia College - Birmingham",
  "dom": "vc.edu",
  "lat": "33.4709456",
  "lng": "-86.8165628"
}, {
  "name": "Wallace State Community College  - Hanceville",
  "dom": "wallacestate.edu",
  "lat": "34.0725242",
  "lng": "-86.7822611"
}, {
  "name": "Arkansas Baptist College",
  "dom": "arkansasbaptist.edu",
  "lat": "34.734733",
  "lng": "-92.289166"
}, {
  "name": "Arkansas Northeastern College",
  "dom": "anc.edu",
  "lat": "35.8996112",
  "lng": "-89.9186769"
}, {
  "name": "Arkansas State University",
  "dom": "astate.edu",
  "lat": "35.8417002",
  "lng": "-90.6768986"
}, {
  "name": "Arkansas State University - Beebe",
  "dom": "WWW.ASUB.EDU",
  "lat": "35.0706423",
  "lng": "-91.8795856"
}, {
  "name": "Arkansas State University - Newport",
  "dom": "asun.edu",
  "lat": "35.6396469",
  "lng": "-91.18883679999999"
}, {
  "name": "Arkansas State University Mountain Home",
  "dom": "asumh.edu",
  "lat": "36.3219231",
  "lng": "-92.3810786"
}, {
  "name": "Arkansas Tech University",
  "dom": "atu.edu",
  "lat": "35.2936575",
  "lng": "-93.1353577"
}, {
  "name": "Arthur's Beauty College, Inc. - Jacksonville",
  "dom": "arthursbeautycollege.com",
  "lat": "34.891615",
  "lng": "-92.102718"
}, {
  "name": "Arthur's Beauty College, Inc. - Pine Bluff",
  "dom": "WWW.ARTHURSBEAUTYCOLLEGE.COM",
  "lat": "34.2221929",
  "lng": "-91.975338"
}, {
  "name": "Baptist Health Schools Little Rock",
  "dom": "bhslr.edu",
  "lat": "34.713092",
  "lng": "-92.407448"
}, {
  "name": "Black River Technical College",
  "dom": "blackrivertech.edu",
  "lat": "36.2398243",
  "lng": "-90.95139300000001"
}, {
  "name": "Career Academy of Hair Design",
  "dom": "beautyschool.edu",
  "lat": "36.167599",
  "lng": "-94.1292859"
}, {
  "name": "Central Arkansas Radiation Therapy Institute",
  "dom": "carti.com",
  "lat": "43.8561002",
  "lng": "-79.3370188"
}, {
  "name": "Central Baptist College",
  "dom": "cbc.edu",
  "lat": "35.0844684",
  "lng": "-92.4447423"
}, {
  "name": "Cossatot Community College of the University of Arkansas",
  "dom": "cccua.edu",
  "lat": "34.0418676",
  "lng": "-94.36489619999999"
}, {
  "name": "Crowley's Ridge College",
  "dom": "crowleysridgecollege.edu",
  "lat": "36.0664307",
  "lng": "-90.5845351"
}, {
  "name": "Crowleys Ridge Technical Institute",
  "dom": "crti.tec.ar.us",
  "lat": "35.0522569",
  "lng": "-90.765361"
}, {
  "name": "East Arkansas Community College",
  "dom": "WWW.EACC.EDU",
  "lat": "35.0522569",
  "lng": "-90.765361"
}, {
  "name": "Eastern College of Health Vocations - Little Rock",
  "dom": "echv.com",
  "lat": "34.751263",
  "lng": "-92.341824"
}, {
  "name": "Ecclesia College",
  "dom": "ecollege.edu",
  "lat": "36.2111117",
  "lng": "-94.2398468"
}, {
  "name": "Harding University",
  "dom": "harding.edu",
  "lat": "35.2494676",
  "lng": "-91.72703729999999"
}, {
  "name": "Henderson State University",
  "dom": "hsu.edu",
  "lat": "34.1261129",
  "lng": "-93.0587937"
}, {
  "name": "Hendrix College",
  "dom": "hendrix.edu",
  "lat": "35.10084390000001",
  "lng": "-92.444561"
}, {
  "name": "Jefferson Regional Medical Center School of Nursing",
  "dom": "jrmc.org",
  "lat": "34.1890553",
  "lng": "-92.0181788"
}, {
  "name": "John Brown University",
  "dom": "jbu.edu",
  "lat": "36.1873353",
  "lng": "-94.55866119999999"
}, {
  "name": "Lyon College",
  "dom": "lyon.edu",
  "lat": "35.7788314",
  "lng": "-91.6261607"
}, {
  "name": "Mid-South Community College",
  "dom": "midsouthcc.edu",
  "lat": "35.1466319",
  "lng": "-90.22127859999999"
}, {
  "name": "National Park Community College",
  "dom": "npcc.edu",
  "lat": "34.5144005",
  "lng": "-93.11957369999999"
}, {
  "name": "North Arkansas College",
  "dom": "northark.edu",
  "lat": "36.2223535",
  "lng": "-93.0881497"
}, {
  "name": "NorthWest Arkansas Community College",
  "dom": "nwacc.edu",
  "lat": "36.3594912",
  "lng": "-94.17241659999999"
}, {
  "name": "Northwest Technical Institute",
  "dom": "nti.tec.ar.us",
  "lat": "36.178798",
  "lng": "-94.114239"
}, {
  "name": "Ouachita Baptist University",
  "dom": "obu.edu",
  "lat": "34.124393",
  "lng": "-93.0516653"
}, {
  "name": "Ouachita Job Corps Center",
  "dom": "ouachita.jobcorps.gov",
  "lat": "34.5390242",
  "lng": "-93.19864179999999"
}, {
  "name": "Ouachita Technical College",
  "dom": "otcweb.edu",
  "lat": "34.3780767",
  "lng": "-92.8217421"
}, {
  "name": "Ozarka College",
  "dom": "ozarka.edu",
  "lat": "36.0534307",
  "lng": "-91.89776379999999"
}, {
  "name": "Philander Smith College",
  "dom": "philander.edu",
  "lat": "34.7373651",
  "lng": "-92.2810437"
}, {
  "name": "Phillips Community College of the University of Arkansas",
  "dom": "pccua.edu",
  "lat": "34.545808",
  "lng": "-90.6184231"
}, {
  "name": "Pulaski Technical College",
  "dom": "pulaskitech.edu",
  "lat": "34.782691",
  "lng": "-92.2978229"
}, {
  "name": "Rich Mountain Community College",
  "dom": "rmcc.edu",
  "lat": "34.590207",
  "lng": "-94.2207007"
}, {
  "name": "South Arkansas Community College",
  "dom": "southark.edu",
  "lat": "33.2098326",
  "lng": "-92.6655186"
}, {
  "name": "Southeast Arkansas College",
  "dom": "seark.edu",
  "lat": "34.209816",
  "lng": "-92.024694"
}, {
  "name": "Southern Arkansas University Main Campus",
  "dom": "WWW.SAUMAG.EDU",
  "lat": "33.2892996",
  "lng": "-93.2361541"
}, {
  "name": "Southern Arkansas University Tech",
  "dom": "sautech.edu",
  "lat": "33.58",
  "lng": "-92.83"
}, {
  "name": "University of Arkansas Community College-Batesville",
  "dom": "uaccb.edu",
  "lat": "35.792075",
  "lng": "-91.617329"
}, {
  "name": "University of Arkansas Community College-Hope",
  "dom": "uacch.edu",
  "lat": "33.642788",
  "lng": "-93.59351579999999"
}, {
  "name": "University of Arkansas Community College-Morrilton",
  "dom": "uaccm.edu",
  "lat": "35.170978",
  "lng": "-92.719943"
}, {
  "name": "University of Arkansas at Little Rock",
  "dom": "ualr.edu",
  "lat": "34.7215808",
  "lng": "-92.34164009999999"
}, {
  "name": "University of Arkansas at Monticello",
  "dom": "uamont.edu",
  "lat": "33.6121105",
  "lng": "-91.8005891"
}, {
  "name": "University of Arkansas at Pine Bluff",
  "dom": "uapb.edu",
  "lat": "34.2284312",
  "lng": "-92.00319549999999"
}, {
  "name": "University of Arkansas for Medical Sciences",
  "dom": "uams.edu",
  "lat": "34.7481525",
  "lng": "-92.3208798"
}, {
  "name": "University of Arkansas, Fayetteville",
  "dom": "uark.edu",
  "lat": "36.0699791",
  "lng": "-94.17697249999999"
}, {
  "name": "University of Arkansas-Fort Smith",
  "dom": "uafortsmith.edu",
  "lat": "35.38074",
  "lng": "-94.37296599999999"
}, {
  "name": "University of Central Arkansas",
  "dom": "uca.edu",
  "lat": "35.079267",
  "lng": "-92.4542111"
}, {
  "name": "University of the Ozarks",
  "dom": "ozarks.edu",
  "lat": "35.4758935",
  "lng": "-93.46628749999999"
}, {
  "name": "Washington Barber College",
  "dom": "washingtonbarbercollege.com",
  "lat": "34.691183",
  "lng": "-92.33537799999999"
}, {
  "name": "Williams Baptist College",
  "dom": "wbcoll.edu",
  "lat": "36.12458609999999",
  "lng": "-90.93904979999999"
}, {
  "name": "Acacia University",
  "dom": "acacia.edu",
  "lat": "33.3480362",
  "lng": "-111.8977324"
}, {
  "name": "Academy of Radio and Television Broadcasting",
  "dom": "abradio",
  "lat": "33.4664418",
  "lng": "-111.9781344"
}, {
  "name": "American Indian College of the Assemblies of God",
  "dom": "aicag.edu",
  "lat": "33.5778487",
  "lng": "-112.0917989"
}, {
  "name": "American Institute of Technology",
  "dom": "ait-schools.com",
  "lat": "33.4426539",
  "lng": "-112.1755669"
}, {
  "name": "Anthem College - Bryman School",
  "dom": "hightechschools.com",
  "lat": "33.5827219",
  "lng": "-112.107232"
}, {
  "name": "Arizona Academy of Beauty - North",
  "dom": "arizonaacademy.com",
  "lat": "32.280794",
  "lng": "-110.9780665"
}, {
  "name": "Arizona Automotive Institute",
  "dom": "aai.edu",
  "lat": "33.5359808",
  "lng": "-112.1578662"
}, {
  "name": "Arizona Christian University",
  "dom": "swcaz.edu",
  "lat": "33.5952105",
  "lng": "-112.0260526"
}, {
  "name": "Arizona College",
  "dom": "arizonacollege.edu",
  "lat": "33.5664184",
  "lng": "-112.1536489"
}, {
  "name": "Arizona School of Acupuncture and Oriental Medicine",
  "dom": "asaom.edu",
  "lat": "32.26120170000001",
  "lng": "-110.8932512"
}, {
  "name": "Arizona State University",
  "dom": "asu.edu",
  "lat": "33.4185928",
  "lng": "-111.9330399"
}, {
  "name": "Arizona Western College",
  "dom": "azwestern.edu",
  "lat": "32.687169",
  "lng": "-114.6246981"
}, {
  "name": "Automotive Dealership Institute",
  "dom": "autodealerinstitute.com",
  "lat": "33.5327562",
  "lng": "-111.9252497"
}, {
  "name": "Avalon School of Cosmetology",
  "dom": "WWW.EARLSACADEMY.COM",
  "lat": "33.3763166",
  "lng": "-111.8586564"
}, {
  "name": "Brighton College",
  "dom": "brightoncollege.edu",
  "lat": "33.62308489999999",
  "lng": "-111.920523"
}, {
  "name": "Brillare Hairdressing Academy - Scottsdale",
  "dom": "attheacademy.com",
  "lat": "33.6238997",
  "lng": "-111.9249321"
}, {
  "name": "Carrington College - Phoenix",
  "dom": "apollocollege.edu",
  "lat": "33.561658",
  "lng": "-112.116319"
}, {
  "name": "Carsten Institute of Cosmetology",
  "dom": "carsteninstitute.com",
  "lat": "33.3914268",
  "lng": "-111.9260296"
}, {
  "name": "Central Arizona College",
  "dom": "centralaz.edu",
  "lat": "32.956505",
  "lng": "-111.655243"
}, {
  "name": "Charles of Italy Beauty College",
  "dom": "charlesofitaly.com",
  "lat": "34.477413",
  "lng": "-114.332533"
}, {
  "name": "Cochise College",
  "dom": "cochise.edu",
  "lat": "31.3632989",
  "lng": "-109.6892521"
}, {
  "name": "Coconino County Community College",
  "dom": "coconino.edu",
  "lat": "35.177432",
  "lng": "-111.644374"
}, {
  "name": "College America - Flagstaff",
  "dom": "collegeamerica.edu",
  "lat": "35.1827045",
  "lng": "-111.6608324"
}, {
  "name": "Conservatory of Recording Arts and Sciences",
  "dom": "WWW.AUDIORECORDINGSCHOOL.com",
  "lat": "33.4079368",
  "lng": "-111.8895614"
}, {
  "name": "Cortiva Institute - Desert Institute of the Healing Arts",
  "dom": "desertinstitute.org",
  "lat": "32.219129",
  "lng": "-110.856764"
}, {
  "name": "Cortiva Institute - Scottsdale",
  "dom": "ptmcaz.com",
  "lat": "33.466729",
  "lng": "-111.907469"
}, {
  "name": "DeVoe College of Beauty",
  "dom": "personal.riverusers.com",
  "lat": "31.553344",
  "lng": "-110.2920923"
}, {
  "name": "Dine College",
  "dom": "dinecollege.edu",
  "lat": "36.3060588",
  "lng": "-109.2207725"
}, {
  "name": "Dunlap-Stone University",
  "dom": "dunlap-stone.edu",
  "lat": "33.5893036",
  "lng": "-112.1197683"
}, {
  "name": "East Valley Institute of Technology",
  "dom": "evit.com",
  "lat": "33.41406449999999",
  "lng": "-111.8656079"
}, {
  "name": "Eastern Arizona College",
  "dom": "eac.edu",
  "lat": "32.8436994",
  "lng": "-109.7625581"
}, {
  "name": "Empire Beauty School - Glendale",
  "dom": "artisticbeautycolleges.com",
  "lat": "33.5837334",
  "lng": "-112.1515353"
}, {
  "name": "Grand Canyon University",
  "dom": "gcu.edu",
  "lat": "33.509854",
  "lng": "-112.1303716"
}, {
  "name": "HDS Truck Driving Institute",
  "dom": "kathychdsdrivers.com",
  "lat": "32.138553",
  "lng": "-110.855776"
}, {
  "name": "Han University of Traditional Medicine",
  "dom": "asianinstitute.edu",
  "lat": "32.264504",
  "lng": "-110.929208"
}, {
  "name": "Harrison Middleton University",
  "dom": "hmu.edu",
  "lat": "33.4074365",
  "lng": "-111.9224754"
}, {
  "name": "International Academy of Hair Design - Mesa",
  "dom": "intlacademy.biz",
  "lat": "33.3892",
  "lng": "-111.86058"
}, {
  "name": "International Baptist College",
  "dom": "IBConline.edu",
  "lat": "33.2758516",
  "lng": "-111.8786293"
}, {
  "name": "International Import-Export Institute",
  "dom": "expandglobal.com",
  "lat": "33.5893036",
  "lng": "-112.1197683"
}, {
  "name": "International Institute of the Americas",
  "dom": "iia.edu",
  "lat": "33.5135065",
  "lng": "-112.1515426"
}, {
  "name": "Kaplan College - Phoenix",
  "dom": "longtechnicalcollege.com",
  "lat": "33.6065573",
  "lng": "-112.1188971"
}, {
  "name": "Kohler Academy",
  "dom": "kohleracademy.com",
  "lat": "33.6078385",
  "lng": "-111.9264565"
}, {
  "name": "Lamson College",
  "dom": "lamsoncollege.com",
  "lat": "33.3482574",
  "lng": "-111.9522715"
}, {
  "name": "Maricopa Community College System Office",
  "dom": "dist.maricopa.edu",
  "lat": "33.4129365",
  "lng": "-111.9757944"
}, {
  "name": "Maricopa Community Colleges - Estrella Mountain Community College",
  "dom": "emc.maricopa.edu",
  "lat": "33.4797241",
  "lng": "-112.3423449"
}, {
  "name": "Maricopa Community Colleges - Gateway Community College",
  "dom": "gwc.maricopa.edu",
  "lat": "33.4496764",
  "lng": "-111.9962714"
}, {
  "name": "Maricopa Community Colleges - Glendale Community College",
  "dom": "gc.maricopa.edu",
  "lat": "33.5694333",
  "lng": "-112.1908271"
}, {
  "name": "Maricopa Community Colleges - Mesa Community College",
  "dom": "mc.maricopa.edu",
  "lat": "33.3916427",
  "lng": "-111.8720487"
}, {
  "name": "Maricopa Community Colleges - South Mountain Community College",
  "dom": "southmountaincc.edu",
  "lat": "33.382744",
  "lng": "-112.03444"
}, {
  "name": "Mohave Community College",
  "dom": "mohave.edu",
  "lat": "35.2685008",
  "lng": "-114.0306138"
}, {
  "name": "Mundus Institute",
  "dom": "WWW.MUNDUSINSTITUTE.COM",
  "lat": "33.5091647",
  "lng": "-112.1027331"
}, {
  "name": "National Paralegal College",
  "dom": "nationalparalegal.edu",
  "lat": "33.5317055",
  "lng": "-112.0654459"
}, {
  "name": "Northcentral University",
  "dom": "ncu.edu",
  "lat": "34.5565039",
  "lng": "-112.4749779"
}, {
  "name": "Northern Arizona University",
  "dom": "nau.edu",
  "lat": "35.19054029999999",
  "lng": "-111.653403"
}, {
  "name": "Northland Pioneer College",
  "dom": "npc.edu",
  "lat": "34.9008449",
  "lng": "-110.1608389"
}, {
  "name": "Paradise Valley Unified School District Dietetic Internship",
  "dom": "pvuse.k12.az.us",
  "lat": "33.6735835",
  "lng": "-112.0137215"
}, {
  "name": "Paralegal Institute, Inc.",
  "dom": "theparalegalinstitute.edu",
  "lat": "33.62308489999999",
  "lng": "-111.920523"
}, {
  "name": "Penn Foster College",
  "dom": "pennfostercollege.edu",
  "lat": "33.615989",
  "lng": "-111.898759"
}, {
  "name": "Phoenix Institute of Herbal Medicine and Acupuncture",
  "dom": "pihma.com",
  "lat": "33.52278200000001",
  "lng": "-112.068774"
}, {
  "name": "Phoenix Seminary",
  "dom": "phoenixseminary.edu",
  "lat": "33.4807331",
  "lng": "-111.9907917"
}, {
  "name": "Pima Community College",
  "dom": "pima.edu",
  "lat": "32.225726",
  "lng": "-111.016502"
}, {
  "name": "Premier Training, Inc. Dale Carnegie Training",
  "dom": "tucson.dalecarnegie.com",
  "lat": "32.287913",
  "lng": "-110.966917"
}, {
  "name": "Prescott College",
  "dom": "prescott.edu",
  "lat": "34.5448128",
  "lng": "-112.4765743"
}, {
  "name": "Rainstar University",
  "dom": "rainstaruniversity.com",
  "lat": "33.5547315",
  "lng": "-111.9007621"
}, {
  "name": "Refrigeration School Inc",
  "dom": "refrigerationschool.com",
  "lat": "33.4484972",
  "lng": "-111.989313"
}, {
  "name": "Roberto-Venn School of Luthiery",
  "dom": "roberto-venn.com",
  "lat": "33.4099029",
  "lng": "-112.0467025"
}, {
  "name": "Sessions College for Professional Design",
  "dom": "sessions.edu",
  "lat": "33.4269408",
  "lng": "-111.9404033"
}, {
  "name": "Sessions Online School of Fine Arts",
  "dom": "finearts.sessions.edu",
  "lat": "33.4267593",
  "lng": "-111.9405101"
}, {
  "name": "Sessions Online School of Game Art",
  "dom": "gameart.sessions.edu",
  "lat": "33.4267593",
  "lng": "-111.9405101"
}, {
  "name": "Sonoran Desert Institute",
  "dom": "sdi.edu",
  "lat": "33.552588",
  "lng": "-111.89337"
}, {
  "name": "Southwest College of Naturopathic Medicine & Health Sciences",
  "dom": "scnm.edu",
  "lat": "33.40842730000001",
  "lng": "-111.8949151"
}, {
  "name": "Southwest University of Visual Arts",
  "dom": "theartcenter.EDU",
  "lat": "32.25284",
  "lng": "-110.9271475"
}, {
  "name": "The Art Institute of Phoenix",
  "dom": "aipx.aii.edu",
  "lat": "33.5669889",
  "lng": "-112.1073419"
}, {
  "name": "Thunderbird School of Global Management",
  "dom": "t-bird.edu",
  "lat": "33.6223904",
  "lng": "-112.1823993"
}, {
  "name": "Tucson College",
  "dom": "tucsoncollege.edu",
  "lat": "32.2223",
  "lng": "-110.8823208"
}, {
  "name": "Universal Technical Institute of Arizona Inc",
  "dom": "uticorp.com",
  "lat": "33.4530102",
  "lng": "-112.2880882"
}, {
  "name": "University of Advancing Technology",
  "dom": "uat.edu",
  "lat": "33.377826",
  "lng": "-111.9759088"
}, {
  "name": "University of Arizona",
  "dom": "arizona.edu",
  "lat": "32.2326602",
  "lng": "-110.9509063"
}, {
  "name": "University of Phoenix",
  "dom": "phoenix.edu",
  "lat": "33.4020704",
  "lng": "-111.9660244"
}, {
  "name": "Western International University",
  "dom": "wintu.edu",
  "lat": "33.4028276",
  "lng": "-111.9658665"
}, {
  "name": "Yavapai College",
  "dom": "YC.EDU",
  "lat": "34.5454624",
  "lng": "-112.4566694"
}, {
  "name": "A-Technical College",
  "dom": "virginiaschoolcenter.com",
  "lat": "34.0403438",
  "lng": "-118.2575545"
}, {
  "name": "AAKORP, Inc.",
  "dom": "INTONLINE.NET",
  "lat": "33.7379213",
  "lng": "-118.3093321"
}, {
  "name": "ABC Adult School",
  "dom": "abcadultschool.com",
  "lat": "33.8781698",
  "lng": "-118.0700739"
}, {
  "name": "AF International School of Languages, Inc",
  "dom": "afint.com",
  "lat": "34.1653952",
  "lng": "-118.8296898"
}, {
  "name": "ATI College",
  "dom": "adconsys.edu",
  "lat": "33.9050471",
  "lng": "-118.0686971"
}, {
  "name": "ATI College - Santa Ana",
  "dom": "ati.edu",
  "lat": "33.7610237",
  "lng": "-117.8543284"
}, {
  "name": "Abraham Lincoln University",
  "dom": "alu.edu",
  "lat": "34.0613691",
  "lng": "-118.3012045"
}, {
  "name": "Absolute Safety Training Paramedic Program",
  "dom": "absolutesafetytraining.org",
  "lat": "39.5204883",
  "lng": "-122.2078999"
}, {
  "name": "Academy Education Services",
  "dom": "academyed.com",
  "lat": "34.1986243",
  "lng": "-119.2118156"
}, {
  "name": "Academy Pacific Travel College",
  "dom": "academypacific.edu",
  "lat": "34.1038598",
  "lng": "-118.3268262"
}, {
  "name": "Academy for Jewish Religion",
  "dom": "ajrca.org",
  "lat": "34.070606",
  "lng": "-118.4385915"
}, {
  "name": "Academy of Art University",
  "dom": "academyart.edu",
  "lat": "37.7879195",
  "lng": "-122.400711"
}, {
  "name": "Academy of Chinese Culture and Health Sciences",
  "dom": "acchs.edu",
  "lat": "37.8068035",
  "lng": "-122.2728225"
}, {
  "name": "Academy of Couture Art",
  "dom": "acawh.com",
  "lat": "34.064686",
  "lng": "-118.3756181"
}, {
  "name": "Academy of Radio and Television Broadcasting",
  "dom": "arbradio.com",
  "lat": "33.7291592",
  "lng": "-117.9874902"
}, {
  "name": "Acupuncture and Integrative Medicine College - Berkeley",
  "dom": "aimc.edu",
  "lat": "37.8627608",
  "lng": "-122.2677381"
}, {
  "name": "Advanced Career Institute - Visalia",
  "dom": "trainaci.com",
  "lat": "36.3444143",
  "lng": "-119.3856099"
}, {
  "name": "Advanced Training Associates",
  "dom": "advancedtraining.edu",
  "lat": "32.819301",
  "lng": "-116.9813251"
}, {
  "name": "Aerobics and Fitness Association of America (AFAA) Distance Education Center",
  "dom": "afaa.com",
  "lat": "34.1534037",
  "lng": "-118.4651405"
}, {
  "name": "Alamdea Adult School",
  "dom": "alameda.k12.ca.us",
  "lat": "37.7647373",
  "lng": "-122.2449068"
}, {
  "name": "Alhambra Adult Education",
  "dom": "alhambra.k12.ca.us",
  "lat": "34.0969539",
  "lng": "-118.128529"
}, {
  "name": "Alhambra Medical University",
  "dom": "amuedu.com",
  "lat": "34.0904106",
  "lng": "-118.1452107"
}, {
  "name": "Allan Hancock College",
  "dom": "hancockcollege.edu",
  "lat": "34.943855",
  "lng": "-120.421476"
}, {
  "name": "Alliant International University",
  "dom": "alliant.edu",
  "lat": "32.8972454",
  "lng": "-117.0949674"
}, {
  "name": "Allied American University",
  "dom": "allied.edu",
  "lat": "33.6230973",
  "lng": "-117.7294509"
}, {
  "name": "Allied Business Schools",
  "dom": "alliedschools.com",
  "lat": "33.6230973",
  "lng": "-117.7294509"
}, {
  "name": "American Academy of English",
  "dom": "aaesl.com",
  "lat": "37.7814095",
  "lng": "-122.419376"
}, {
  "name": "American Baptist Seminary of the West",
  "dom": "absw.edu",
  "lat": "37.8652659",
  "lng": "-122.2560423"
}, {
  "name": "American Career College - Los Angeles",
  "dom": "americancareer.com",
  "lat": "34.079331",
  "lng": "-118.292477"
}, {
  "name": "American College of Healthcare",
  "dom": "ACHPONLINE.COM",
  "lat": "33.9016367",
  "lng": "-117.4935832"
}, {
  "name": "American College of Medical Technology",
  "dom": "acmt.ac",
  "lat": "33.893187",
  "lng": "-118.284315"
}, {
  "name": "American College of Traditional Chinese Medicine",
  "dom": "actcm.edu",
  "lat": "37.7605278",
  "lng": "-122.398172"
}, {
  "name": "American Conservatory Theater",
  "dom": "act-sf.org",
  "lat": "37.7876868",
  "lng": "-122.4052478"
}, {
  "name": "American English College",
  "dom": "aea-usa.com",
  "lat": "34.0629583",
  "lng": "-118.1347398"
}, {
  "name": "American Film Institute",
  "dom": "AFI.com",
  "lat": "34.1075609",
  "lng": "-118.3100989"
}, {
  "name": "American Graduate University",
  "dom": "agu.edu",
  "lat": "34.0934934",
  "lng": "-117.8698403"
}, {
  "name": "American Institute of Massage Therapy - Santa Ana",
  "dom": "aimtinc.com",
  "lat": "33.7144991",
  "lng": "-117.8501339"
}, {
  "name": "American Jewish University",
  "dom": "uj.edu",
  "lat": "34.1278537",
  "lng": "-118.4722847"
}, {
  "name": "American Musical and Dramatic Academy - Los Angeles",
  "dom": "amda.edu",
  "lat": "34.1037803",
  "lng": "-118.3268518"
}, {
  "name": "American River College",
  "dom": "arc.losrios.edu",
  "lat": "38.65041009999999",
  "lng": "-121.3454962"
}, {
  "name": "American University of Health Sciences",
  "dom": "aihs.edu",
  "lat": "33.7969363",
  "lng": "-118.1715309"
}, {
  "name": "Americana College",
  "dom": "americanacollege.com",
  "lat": "34.0857",
  "lng": "-118.309386"
}, {
  "name": "Anaheim Adult Education School",
  "dom": "auhsd.k12.ca.us",
  "lat": "33.8180693",
  "lng": "-117.8909503"
}, {
  "name": "Anaheim University",
  "dom": "anaheim.edu",
  "lat": "33.816702",
  "lng": "-117.887937"
}, {
  "name": "Anderson Medical Career College",
  "dom": "andersonmedicalcollege.com",
  "lat": "34.1718742",
  "lng": "-118.3656026"
}, {
  "name": "Antelope Valley College",
  "dom": "avc.edu",
  "lat": "34.6751424",
  "lng": "-118.183794"
}, {
  "name": "Art Center College of Design",
  "dom": "artcenter.edu",
  "lat": "34.1693258",
  "lng": "-118.1853444"
}, {
  "name": "Ashdown College of Health Sciences",
  "dom": "ashdowncollege.edu",
  "lat": "34.0576435",
  "lng": "-117.181179"
}, {
  "name": "Asher College",
  "dom": "asher.edu",
  "lat": "38.5876261",
  "lng": "-121.4156589"
}, {
  "name": "Asian American International Beauty College",
  "dom": "aabeautycollege.com",
  "lat": "33.7595354",
  "lng": "-117.9916448"
}, {
  "name": "Associated Technical College",
  "dom": "associatedtechcollege.com",
  "lat": "32.715464",
  "lng": "-117.157997"
}, {
  "name": "Aviation and Electronic Schools of America - Colfax",
  "dom": "aesa.com",
  "lat": "39.0984813",
  "lng": "-120.9532012"
}, {
  "name": "Azusa Pacific University",
  "dom": "apu.edu",
  "lat": "34.1291939",
  "lng": "-117.8890242"
}, {
  "name": "Bakersfield Adult Schools",
  "dom": "khsd.k12.ca.us",
  "lat": "35.3507115",
  "lng": "-118.9674794"
}, {
  "name": "Bakersfield College",
  "dom": "bakersfieldcollege.edu",
  "lat": "35.407538",
  "lng": "-118.967986"
}, {
  "name": "Baldwin Park Adult and Community Education",
  "dom": "bpace.k12.ca.us",
  "lat": "34.0966781",
  "lng": "-117.9593744"
}, {
  "name": "Barstow Community College",
  "dom": "barstow.edu",
  "lat": "34.8708091",
  "lng": "-117.0243144"
}, {
  "name": "Bassett Adult School",
  "dom": "bassett.k12.ca.us",
  "lat": "34.0637221",
  "lng": "-117.9747159"
}, {
  "name": "Bellus Academy",
  "dom": "sandiegobeautyacademy.com",
  "lat": "32.9565603",
  "lng": "-117.0428536"
}, {
  "name": "Bergin University of Canine Studies",
  "dom": "assistancedog.org",
  "lat": "38.3536709",
  "lng": "-122.7206726"
}, {
  "name": "Berkeley City College",
  "dom": "berkeley.peralta.edu",
  "lat": "37.8699525",
  "lng": "-122.2696176"
}, {
  "name": "Bethany University",
  "dom": "bethany.edu",
  "lat": "37.076006",
  "lng": "-121.994071"
}, {
  "name": "Bethesda University",
  "dom": "bcu.edu",
  "lat": "33.8423572",
  "lng": "-117.941268"
}, {
  "name": "BioHealth College",
  "dom": "biohealthcollege.com",
  "lat": "37.364213",
  "lng": "-121.91216"
}, {
  "name": "Biola University",
  "dom": "biola.edu",
  "lat": "33.9058214",
  "lng": "-118.0179056"
}, {
  "name": "Brand College",
  "dom": "brandcollege.us",
  "lat": "34.1579989",
  "lng": "-118.265456"
}, {
  "name": "Brandman University",
  "dom": "brandman.edu",
  "lat": "33.6560086",
  "lng": "-117.7690353"
}, {
  "name": "Brandon College",
  "dom": "brandoncollege.com",
  "lat": "37.7835478",
  "lng": "-122.408953"
}, {
  "name": "Bristol University",
  "dom": "kensingtoncollege.net",
  "lat": "33.795573",
  "lng": "-117.8823214"
}, {
  "name": "Brooks College",
  "dom": "brookscollege.edu",
  "lat": "33.7855973",
  "lng": "-118.1363736"
}, {
  "name": "Brownson Technical School",
  "dom": "brownsontechnicalschool.com",
  "lat": "33.819073",
  "lng": "-117.90588"
}, {
  "name": "Bryan College",
  "dom": "ntcollege.com",
  "lat": "38.6236803",
  "lng": "-121.2626766"
}, {
  "name": "Bryan University",
  "dom": "bryancollege.edu",
  "lat": "34.0614461",
  "lng": "-118.3028634"
}, {
  "name": "Business Empowerment, Inc. Dale Carnegie Training",
  "dom": "steve_verburg@dalecarnegie.com",
  "lat": "33.7094129",
  "lng": "-117.8475099"
}, {
  "name": "Butte College",
  "dom": "butte.edu",
  "lat": "39.6510442",
  "lng": "-121.6454175"
}, {
  "name": "CNI College",
  "dom": "cnicollege.edu",
  "lat": "33.7757306",
  "lng": "-117.8612852"
}, {
  "name": "COBA Academy",
  "dom": "coba.edu",
  "lat": "33.788332",
  "lng": "-117.853336"
}, {
  "name": "Cabrillo College",
  "dom": "cabrillo.edu",
  "lat": "36.9872756",
  "lng": "-121.9270394"
}, {
  "name": "California Baptist University",
  "dom": "calbaptist.edu",
  "lat": "33.9295059",
  "lng": "-117.4271831"
}, {
  "name": "California Career Institute",
  "dom": "rqahoush@cshs.edu",
  "lat": "33.7864978",
  "lng": "-117.959719"
}, {
  "name": "California Career School",
  "dom": "Californiacareerschool.edu",
  "lat": "33.8195446",
  "lng": "-117.9063168"
}, {
  "name": "California Christian College",
  "dom": "calchristiancollege.org",
  "lat": "36.7671769",
  "lng": "-119.732823"
}, {
  "name": "California Coast University",
  "dom": "calcoast.edu",
  "lat": "33.753034",
  "lng": "-117.865238"
}, {
  "name": "California College of Vocational Careers",
  "dom": "californiacollegevc.com",
  "lat": "35.37652",
  "lng": "-119.019204"
}, {
  "name": "California College of the Arts",
  "dom": "cca.edu",
  "lat": "37.83587869999999",
  "lng": "-122.2514029"
}, {
  "name": "California College-San Diego",
  "dom": "cc-sd.edu",
  "lat": "32.7707683",
  "lng": "-117.1339055"
}, {
  "name": "California Healing Arts College",
  "dom": "chac.edu",
  "lat": "34.0400231",
  "lng": "-118.4650696"
}, {
  "name": "California Institute of Integral Studies",
  "dom": "ciis.edu",
  "lat": "37.7726402",
  "lng": "-122.4099154"
}, {
  "name": "California Institute of Technology",
  "dom": "caltech.edu",
  "lat": "34.1390112",
  "lng": "-118.1245135"
}, {
  "name": "California Institute of the Arts",
  "dom": "calarts.edu",
  "lat": "34.3913114",
  "lng": "-118.5650754"
}, {
  "name": "California Institute of the Healing Arts & Sciences",
  "dom": "californiainstitute.net",
  "lat": "38.586175",
  "lng": "-121.416099"
}, {
  "name": "California Intercontinental University",
  "dom": "caluniversity.edu",
  "lat": "33.9958822",
  "lng": "-117.8389885"
}, {
  "name": "California Learning Center",
  "dom": "aboutclc.com",
  "lat": "33.8325513",
  "lng": "-117.9185621"
}, {
  "name": "California Lutheran University",
  "dom": "callutheran.edu",
  "lat": "34.2241462",
  "lng": "-118.8767951"
}, {
  "name": "California Maritime Academy",
  "dom": "csum.edu",
  "lat": "38.0697508",
  "lng": "-122.2317302"
}, {
  "name": "California Miramar University",
  "dom": "calmu.edu",
  "lat": "32.894221",
  "lng": "-117.119352"
}, {
  "name": "California Northstate College of Pharmacy",
  "dom": "californiacollegeofpharmacy.org",
  "lat": "38.580787",
  "lng": "-121.288483"
}, {
  "name": "California Polytechnic State University-San Luis Obispo",
  "dom": "calpoly.edu",
  "lat": "35.2959663",
  "lng": "-120.6531793"
}, {
  "name": "California School of Health Sciences",
  "dom": "hprovider.com",
  "lat": "33.7744904",
  "lng": "-117.9372898"
}, {
  "name": "California School of Languages",
  "dom": "csl-losangeles.com",
  "lat": "34.01864",
  "lng": "-118.4985607"
}, {
  "name": "California Southern University",
  "dom": "calsouthern.edu",
  "lat": "33.692768",
  "lng": "-117.766266"
}, {
  "name": "California State Polytechnic University - Pomona",
  "dom": "csupomona.edu",
  "lat": "34.0587981",
  "lng": "-117.8208397"
}, {
  "name": "California State University - Bakersfield",
  "dom": "csubak.edu",
  "lat": "35.3514594",
  "lng": "-119.1032316"
}, {
  "name": "California State University - Channel Islands",
  "dom": "csuci.edu",
  "lat": "34.165363",
  "lng": "-119.0451473"
}, {
  "name": "California State University - Chico",
  "dom": "csuchico.edu",
  "lat": "39.7281808",
  "lng": "-121.84612"
}, {
  "name": "California State University - Dominguez Hills",
  "dom": "csudh.edu",
  "lat": "33.8652873",
  "lng": "-118.2589841"
}, {
  "name": "California State University - East Bay",
  "dom": "csueastbay.edu",
  "lat": "37.65756289999999",
  "lng": "-122.0543356"
}, {
  "name": "California State University - Fresno",
  "dom": "csufresno.edu",
  "lat": "36.8108284",
  "lng": "-119.7462226"
}, {
  "name": "California State University - Fullerton",
  "dom": "fullerton.edu",
  "lat": "33.8779144",
  "lng": "-117.8895144"
}, {
  "name": "California State University - Long Beach",
  "dom": "csulb.edu",
  "lat": "33.7810473",
  "lng": "-118.1135286"
}, {
  "name": "California State University - Los Angeles",
  "dom": "calstatela.edu",
  "lat": "34.063607",
  "lng": "-118.1708233"
}, {
  "name": "California State University - Monterey Bay",
  "dom": "csumb.edu",
  "lat": "36.6544335",
  "lng": "-121.8080914"
}, {
  "name": "California State University - Northridge",
  "dom": "csun.edu",
  "lat": "34.2359933",
  "lng": "-118.5279092"
}, {
  "name": "California State University - Sacramento",
  "dom": "csus.edu",
  "lat": "38.564383",
  "lng": "-121.4262853"
}, {
  "name": "California State University - San Bernardino",
  "dom": "csusb.edu",
  "lat": "34.1821748",
  "lng": "-117.3187973"
}, {
  "name": "California State University - San Marcos",
  "dom": "csusm.edu",
  "lat": "33.1287176",
  "lng": "-117.1595291"
}, {
  "name": "California State University - Stanislaus",
  "dom": "csustan.edu",
  "lat": "37.521982",
  "lng": "-120.8584787"
}, {
  "name": "California Technical Education College",
  "dom": "caltechcollege.com",
  "lat": "34.05572",
  "lng": "-118.271575"
}, {
  "name": "California University of Management and Sciences",
  "dom": "calums.edu",
  "lat": "33.8420725",
  "lng": "-117.9420348"
}, {
  "name": "California Western School of Law",
  "dom": "cwsl.edu",
  "lat": "32.7217263",
  "lng": "-117.1625058"
}, {
  "name": "Canada College",
  "dom": "canadacollege.edu",
  "lat": "37.4478563",
  "lng": "-122.2649024"
}, {
  "name": "Capistrano Laguna Beach ROP",
  "dom": "capolagrop.k12.ca.us",
  "lat": "33.5043549",
  "lng": "-117.659112"
}, {
  "name": "Career Academy of Beauty",
  "dom": "BeautyCareers.com",
  "lat": "33.7810448",
  "lng": "-118.031664"
}, {
  "name": "Career Care Institute - Lancaster",
  "dom": "careercareinstitute.com",
  "lat": "34.6781742",
  "lng": "-118.1560084"
}, {
  "name": "Career College Consultants",
  "dom": "sticcc.com",
  "lat": "34.1375509",
  "lng": "-118.214908"
}, {
  "name": "Career College of California",
  "dom": "career-college.net",
  "lat": "33.7481934",
  "lng": "-117.8664136"
}, {
  "name": "Career College of San Diego",
  "dom": "careercollegesandiego.com",
  "lat": "32.7119203",
  "lng": "-117.1219923"
}, {
  "name": "Career Colleges of America - South Gate",
  "dom": "CAREERCOLLEGES.ORG",
  "lat": "33.9299568",
  "lng": "-118.1719176"
}, {
  "name": "Career Development Institute, Inc.",
  "dom": "cdiworld.com",
  "lat": "34.0458218",
  "lng": "-118.3860485"
}, {
  "name": "Career Management Institute",
  "dom": "careerinstitute.com",
  "lat": "33.7801964",
  "lng": "-117.8686832"
}, {
  "name": "Carrington College California - Sacramento",
  "dom": "carrington.edu",
  "lat": "38.5559901",
  "lng": "-121.3715399"
}, {
  "name": "Casa Loma College - Van Nuys",
  "dom": "casalomacollege.com",
  "lat": "34.1927767",
  "lng": "-118.4578394"
}, {
  "name": "Center for Employment Training - Escondido",
  "dom": "cet2000.org",
  "lat": "33.1326785",
  "lng": "-117.0682041"
}, {
  "name": "Central County Occupational Center/Program",
  "dom": "metroed.net",
  "lat": "37.2779037",
  "lng": "-121.8659821"
}, {
  "name": "Central Nursing College",
  "dom": "cncla.org",
  "lat": "34.0615138",
  "lng": "-118.302224"
}, {
  "name": "Century School of Languages",
  "dom": "centurylanguage.com",
  "lat": "37.296014",
  "lng": "-121.987675"
}, {
  "name": "Cerritos College",
  "dom": "WWW.CERRITOS.EDU",
  "lat": "33.8874298",
  "lng": "-118.0905048"
}, {
  "name": "Cerro Coso Community College",
  "dom": "cerrocoso.edu",
  "lat": "35.567816",
  "lng": "-117.661287"
}, {
  "name": "Chabot College",
  "dom": "chabotcollege.org",
  "lat": "37.6396318",
  "lng": "-122.102754"
}, {
  "name": "Chaffey College",
  "dom": "WWW.CHAFFEY.EDU",
  "lat": "34.147006",
  "lng": "-117.570338"
}, {
  "name": "Chapman University",
  "dom": "chapman.edu",
  "lat": "33.7930828",
  "lng": "-117.8525746"
}, {
  "name": "Charles R Drew University of Medicine and Science",
  "dom": "cdrewu.edu",
  "lat": "33.9256333",
  "lng": "-118.242526"
}, {
  "name": "Charter College - Canyon Country",
  "dom": "claritacareercollege.com",
  "lat": "34.4078793",
  "lng": "-118.4626183"
}, {
  "name": "Citrus College",
  "dom": "citruscollege.edu",
  "lat": "34.1355896",
  "lng": "-117.8848672"
}, {
  "name": "City College of San Francisco",
  "dom": "ccsf.edu",
  "lat": "37.725819",
  "lng": "-122.4511146"
}, {
  "name": "City of Hope National Medical Center",
  "dom": "cityofhope.org",
  "lat": "34.1296338",
  "lng": "-117.9707674"
}, {
  "name": "Claremont Graduate University",
  "dom": "cgu.edu",
  "lat": "34.1034393",
  "lng": "-117.7123513"
}, {
  "name": "Claremont McKenna College",
  "dom": "claremontmckenna.edu",
  "lat": "34.1023318",
  "lng": "-117.7064983"
}, {
  "name": "Claremont School of Theology",
  "dom": "cst.edu",
  "lat": "34.1081003",
  "lng": "-117.7160811"
}, {
  "name": "Coachella Valley Adult School",
  "dom": "coachella.k12.ca.us",
  "lat": "33.6772499",
  "lng": "-116.1752106"
}, {
  "name": "Coastline Community College",
  "dom": "coastline.cccd.edu",
  "lat": "33.716354",
  "lng": "-117.929114"
}, {
  "name": "Cogswell Polytechnical College",
  "dom": "cogswell.edu",
  "lat": "37.4069078",
  "lng": "-122.024111"
}, {
  "name": "Coleman University",
  "dom": "coleman.edu",
  "lat": "32.822181",
  "lng": "-117.136446"
}, {
  "name": "Colleen O'Hara's Beauty Academy",
  "dom": "californiabeautyschool.com",
  "lat": "33.7480242",
  "lng": "-117.8681302"
}, {
  "name": "College of Alameda",
  "dom": "peralta.edu",
  "lat": "37.7807461",
  "lng": "-122.2793581"
}, {
  "name": "College of Marin",
  "dom": "marin.cc.ca.us",
  "lat": "37.955595",
  "lng": "-122.5496"
}, {
  "name": "College of San Mateo",
  "dom": "collegeofsanmateo.edu",
  "lat": "37.5350511",
  "lng": "-122.335123"
}, {
  "name": "College of the Canyons",
  "dom": "canyons.edu",
  "lat": "34.4041958",
  "lng": "-118.5682627"
}, {
  "name": "College of the Desert",
  "dom": "collegeofthedesert.edu",
  "lat": "33.7617512",
  "lng": "-116.3909787"
}, {
  "name": "College of the Redwoods",
  "dom": "redwoods.edu",
  "lat": "40.6983821",
  "lng": "-124.1953556"
}, {
  "name": "College of the Sequoias",
  "dom": "cos.edu",
  "lat": "36.3249607",
  "lng": "-119.3145277"
}, {
  "name": "College of the Siskiyous",
  "dom": "siskiyous.edu",
  "lat": "41.409483",
  "lng": "-122.391881"
}, {
  "name": "Colton-Redlands-Yucaipa Regional Occupational Program",
  "dom": "cryop.k12.ca.us",
  "lat": "34.0683294",
  "lng": "-117.2049248"
}, {
  "name": "Columbia College",
  "dom": "columbia.yosemite.cc.ca.us",
  "lat": "38.0287779",
  "lng": "-120.3861285"
}, {
  "name": "Columbia College Hollywood",
  "dom": "columbiacollege.edu",
  "lat": "34.179208",
  "lng": "-118.538946"
}, {
  "name": "Community Business College",
  "dom": "communitybusinessscollege.edu",
  "lat": "37.69343",
  "lng": "-120.993355"
}, {
  "name": "Community Christian College",
  "dom": "cccollege.edu",
  "lat": "34.0544992",
  "lng": "-117.2004344"
}, {
  "name": "Community Enhancement Services - CES College",
  "dom": "eduinla.com",
  "lat": "34.1377199",
  "lng": "-118.2515549"
}, {
  "name": "Compton Community College",
  "dom": "compton.cc.ca.us",
  "lat": "33.8743519",
  "lng": "-118.209379"
}, {
  "name": "Computer Training Academy",
  "dom": "cta5.com",
  "lat": "34.0010679",
  "lng": "-117.338474"
}, {
  "name": "Computer Tutor Business and Technical Institute",
  "dom": "computertutor.com",
  "lat": "37.7021432",
  "lng": "-121.0715278"
}, {
  "name": "Concorde Career College",
  "dom": "concorde.edu",
  "lat": "32.702454",
  "lng": "-117.103173"
}, {
  "name": "Concordia University",
  "dom": "cui.edu",
  "lat": "33.6543341",
  "lng": "-117.8124261"
}, {
  "name": "Contra Costa Adult School",
  "dom": "ccoe.k12.ca.us",
  "lat": "37.9890786",
  "lng": "-122.3531994"
}, {
  "name": "Contra Costa College",
  "dom": "contracosta.cc.ca.us",
  "lat": "37.968654",
  "lng": "-122.340449"
}, {
  "name": "Copper Mountain College",
  "dom": "cmccd.edu",
  "lat": "34.1414844",
  "lng": "-116.2128793"
}, {
  "name": "Corona-Norco Adult School",
  "dom": "cnusd.k12.ca.us",
  "lat": "33.8790496",
  "lng": "-117.5775378"
}, {
  "name": "Cosumnes River College",
  "dom": "crc.losrios.edu",
  "lat": "38.4535803",
  "lng": "-121.4216495"
}, {
  "name": "Crafton Hills College",
  "dom": "craftonhills.edu",
  "lat": "34.039307",
  "lng": "-117.1009541"
}, {
  "name": "Crimson Technology College",
  "dom": "westwood.edu",
  "lat": "33.95566",
  "lng": "-118.378265"
}, {
  "name": "Cuesta College",
  "dom": "WWW.CUESTA.EDU",
  "lat": "35.4531541",
  "lng": "-120.9490694"
}, {
  "name": "Cuyamaca College",
  "dom": "cuyamaca.net",
  "lat": "32.742804",
  "lng": "-116.9405814"
}, {
  "name": "Cypress College",
  "dom": "cypresscollege.edu",
  "lat": "33.8300071",
  "lng": "-118.0278162"
}, {
  "name": "DVS College",
  "dom": "dvscollege.com",
  "lat": "34.0621851",
  "lng": "-118.2949261"
}, {
  "name": "Dale Carnegie Training of Central California",
  "dom": "contralca.dalecarnegie.com",
  "lat": "35.414543",
  "lng": "-119.083088"
}, {
  "name": "Dale Carnegie Training of Los Angeles",
  "dom": "dalecarnegie-la.com",
  "lat": "34.1075132",
  "lng": "-117.6734673"
}, {
  "name": "Dale Carnegie of San Joaquin",
  "dom": "stockton.dalecarnegie.com",
  "lat": "37.971766",
  "lng": "-121.356112"
}, {
  "name": "De Anza College",
  "dom": "deanza.edu",
  "lat": "37.321698",
  "lng": "-122.0465551"
}, {
  "name": "Deep Springs College",
  "dom": "deepsprings.edu",
  "lat": "37.3738987",
  "lng": "-117.9803303"
}, {
  "name": "Defense Language Institute",
  "dom": "dli.army.mil",
  "lat": "36.6031809",
  "lng": "-121.9145986"
}, {
  "name": "Delano Adult School",
  "dom": "delanoadultschool.org",
  "lat": "35.7794816",
  "lng": "-119.2364976"
}, {
  "name": "Dell'Arte International School of Physical Theatre",
  "dom": "dellarte.com",
  "lat": "40.8809052",
  "lng": "-123.9888258"
}, {
  "name": "Design Institute of San Diego",
  "dom": "WWW.DISD.EDU",
  "lat": "32.880876",
  "lng": "-117.167324"
}, {
  "name": "Design's School of Cosmetology",
  "dom": "designsschool.com",
  "lat": "35.6483851",
  "lng": "-120.672623"
}, {
  "name": "Diablo Valley College",
  "dom": "WWW.DVC.EDU",
  "lat": "37.9694722",
  "lng": "-122.0699931"
}, {
  "name": "Dialysis Training Institute, LLC",
  "dom": "trainfordialysis.com",
  "lat": "33.8478577",
  "lng": "-118.0369081"
}, {
  "name": "Diversified Vocational College - Los Angeles",
  "dom": "dliusa.com",
  "lat": "34.056086",
  "lng": "-118.272484"
}, {
  "name": "Dominican School of Philosophy and Theology",
  "dom": "dspt.edu",
  "lat": "37.8811431",
  "lng": "-122.2646027"
}, {
  "name": "Dominican University of California",
  "dom": "dominican.edu",
  "lat": "37.97932720000001",
  "lng": "-122.5168821"
}, {
  "name": "Don Bosco Technical Institute",
  "dom": "boscotech.edu",
  "lat": "34.0423",
  "lng": "-118.08704"
}, {
  "name": "Dongguk University - Los Angeles",
  "dom": "dula.edu",
  "lat": "34.065945",
  "lng": "-118.289473"
}, {
  "name": "Downey Adult School",
  "dom": "das.k12.ca.us",
  "lat": "33.91888369999999",
  "lng": "-118.1149188"
}, {
  "name": "East Los Angeles College",
  "dom": "elac.edu",
  "lat": "34.0411583",
  "lng": "-118.1509885"
}, {
  "name": "East San Gabriel Valley Regional Occupational Program",
  "dom": "esgvrop.org",
  "lat": "34.0767647",
  "lng": "-117.937221"
}, {
  "name": "East Side Union High School District Adult School",
  "dom": "aenet.esuhsd.org",
  "lat": "37.3656399",
  "lng": "-121.8590643"
}, {
  "name": "EdNet Career Institute",
  "dom": "ednet4u.com",
  "lat": "34.1796163",
  "lng": "-118.592138"
}, {
  "name": "Eddie C. Snow & Associates, Inc. Dale Carnegie Training",
  "dom": "oakland.dalecarnegie.com",
  "lat": "37.7358543",
  "lng": "-122.200428"
}, {
  "name": "El Camino College",
  "dom": "elcamino.edu",
  "lat": "33.88653",
  "lng": "-118.3266256"
}, {
  "name": "El Monte - Rosemead Adult School",
  "dom": "emuhsd.k12.ca.us",
  "lat": "34.072306",
  "lng": "-118.038878"
}, {
  "name": "Elegance International",
  "dom": "ei.edu",
  "lat": "34.100403",
  "lng": "-118.338301"
}, {
  "name": "Elk Grove Adult & Community Education",
  "dom": "egusd.net",
  "lat": "38.4823976",
  "lng": "-121.3942309"
}, {
  "name": "Embassy CES",
  "dom": "embassyces.com",
  "lat": "34.2208479",
  "lng": "-118.625077"
}, {
  "name": "Emergency Training Services, Inc.",
  "dom": "emergencytraining.com",
  "lat": "36.9882384",
  "lng": "-121.9853314"
}, {
  "name": "English Language Institute",
  "dom": "elisf.com",
  "lat": "37.7887947",
  "lng": "-122.4056108"
}, {
  "name": "Eternity Bible College",
  "dom": "eternitybiblecollege.com",
  "lat": "34.2743874",
  "lng": "-118.7108171"
}, {
  "name": "Evangelia University",
  "dom": "evangelia.edu",
  "lat": "33.8480023",
  "lng": "-117.9775178"
}, {
  "name": "Evans Community Adult School",
  "dom": "delphi.com",
  "lat": "34.0640804",
  "lng": "-118.2457841"
}, {
  "name": "Everest College - Gardena",
  "dom": "cci.edu",
  "lat": "33.892883",
  "lng": "-118.2930462"
}, {
  "name": "Everest College - Torrance",
  "dom": "bryman-college.com",
  "lat": "33.8357531",
  "lng": "-118.3151027"
}, {
  "name": "Evergreen Valley College",
  "dom": "evc.edu",
  "lat": "37.3001189",
  "lng": "-121.7627821"
}, {
  "name": "Ex'pression College for Digital Arts",
  "dom": "expression.edu",
  "lat": "37.8476154",
  "lng": "-122.2951077"
}, {
  "name": "FLS International - Pasadena",
  "dom": "fls.net",
  "lat": "34.1508894",
  "lng": "-118.1328651"
}, {
  "name": "Fairfield-Suisun Adult School",
  "dom": "fsadultschool.com",
  "lat": "38.2534744",
  "lng": "-122.0497683"
}, {
  "name": "Fashion Careers College",
  "dom": "fashioncollege.com",
  "lat": "32.780793",
  "lng": "-117.206994"
}, {
  "name": "Fashion Institute of Design and Merchandising",
  "dom": "WWW.FIDM.EDU",
  "lat": "34.0442488",
  "lng": "-118.2599548"
}, {
  "name": "Feather River College",
  "dom": "frc.edu",
  "lat": "39.952691",
  "lng": "-120.966653"
}, {
  "name": "Federico Beauty Institute",
  "dom": "federico.edu",
  "lat": "38.648839",
  "lng": "-121.4978192"
}, {
  "name": "Fielding Graduate University",
  "dom": "fielding.edu",
  "lat": "34.4344528",
  "lng": "-119.7138925"
}, {
  "name": "Five Branches University:  Graduate School of Traditional Chinese Medicine - San Jose, CA",
  "dom": "fivebranches.edu",
  "lat": "37.3175017",
  "lng": "-121.9475774"
}, {
  "name": "Folsom Lake College",
  "dom": "flc.losrios.edu",
  "lat": "38.662598",
  "lng": "-121.126932"
}, {
  "name": "Fontana Adult School",
  "dom": "fusd.net",
  "lat": "34.0812103",
  "lng": "-117.4534081"
}, {
  "name": "Foothill College",
  "dom": "foothill.edu",
  "lat": "37.3607739",
  "lng": "-122.1268043"
}, {
  "name": "Forty-Niner ROP",
  "dom": "49errop.com",
  "lat": "38.906555",
  "lng": "-121.08139"
}, {
  "name": "Foundation College",
  "dom": "foundationcollege.edu",
  "lat": "32.7610805",
  "lng": "-117.1621173"
}, {
  "name": "Four-D College - Colton",
  "dom": "4Dcollege.com",
  "lat": "34.0473172",
  "lng": "-117.3116397"
}, {
  "name": "Franciscan School of Theology",
  "dom": "fst.edu",
  "lat": "33.2322193",
  "lng": "-117.3198097"
}, {
  "name": "Franklin Career Colleges, Inc. - Inglewood",
  "dom": "Franklincareercollege.com",
  "lat": "33.9637725",
  "lng": "-118.3538129"
}, {
  "name": "Fremont Adult & Continuing Education",
  "dom": "fasce.com",
  "lat": "37.5381131",
  "lng": "-121.9920187"
}, {
  "name": "Fremont College - Cerritos",
  "dom": "plattedu.com",
  "lat": "33.8682292",
  "lng": "-118.0970763"
}, {
  "name": "Fresno Adult School",
  "dom": "fresnoadultschool.org",
  "lat": "36.7425212",
  "lng": "-119.7904763"
}, {
  "name": "Fresno City College",
  "dom": "fresnocitycollege.com",
  "lat": "36.7667743",
  "lng": "-119.7998473"
}, {
  "name": "Fresno Pacific University",
  "dom": "fresno.edu",
  "lat": "36.72714810000001",
  "lng": "-119.7355711"
}, {
  "name": "Fresno ROP",
  "dom": "fresnorop.com",
  "lat": "36.7260602",
  "lng": "-119.779723"
}, {
  "name": "Fuller Theological Seminary",
  "dom": "fuller.edu",
  "lat": "34.1482509",
  "lng": "-118.1402843"
}, {
  "name": "Fullerton College",
  "dom": "fullcoll.edu",
  "lat": "33.8748685",
  "lng": "-117.9193985"
}, {
  "name": "Garden Grove Adult Education",
  "dom": "ggauldteducation.org",
  "lat": "33.7733112",
  "lng": "-117.9352268"
}, {
  "name": "Gates College",
  "dom": "gatescollege.com",
  "lat": "33.8653811",
  "lng": "-118.3540761"
}, {
  "name": "Gavilan College",
  "dom": "gavilan.edu",
  "lat": "36.97217759999999",
  "lng": "-121.5692998"
}, {
  "name": "Gemological Institute of America",
  "dom": "gia.edu",
  "lat": "33.132419",
  "lng": "-117.31873"
}, {
  "name": "Glendale Career College",
  "dom": "success.edu",
  "lat": "34.163459",
  "lng": "-118.282544"
}, {
  "name": "Glendale Community College",
  "dom": "glendale.edu",
  "lat": "34.16822",
  "lng": "-118.228876"
}, {
  "name": "Gnomon School of Visual Effects",
  "dom": "gnomon3d.com",
  "lat": "34.0894197",
  "lng": "-118.3289061"
}, {
  "name": "Golden Gate Baptist Theological Seminary",
  "dom": "ggbts.edu",
  "lat": "37.8878764",
  "lng": "-122.5078769"
}, {
  "name": "Golden Gate Language School, Inc.",
  "dom": "goldengatelanguage.com",
  "lat": "37.294915",
  "lng": "-121.959979"
}, {
  "name": "Golden Gate University-San Francisco",
  "dom": "ggu.edu",
  "lat": "37.7892253",
  "lng": "-122.3990086"
}, {
  "name": "Golden Oak Adult School",
  "dom": "hart.k12.ca.us",
  "lat": "34.3876505",
  "lng": "-118.5393664"
}, {
  "name": "Golden State College of Court Reporting and Captioning",
  "dom": "goldenstatecourtreporting.com",
  "lat": "37.6899785",
  "lng": "-121.9300973"
}, {
  "name": "Golden West College",
  "dom": "gwc.cccd.edu",
  "lat": "33.7351541",
  "lng": "-118.0036569"
}, {
  "name": "Grace Communion Seminary",
  "dom": "gcs.ambassador.edu",
  "lat": "34.1293191",
  "lng": "-117.8273548"
}, {
  "name": "Grace Mission University",
  "dom": "eng.gmuedu.org",
  "lat": "33.8670164",
  "lng": "-117.9575835"
}, {
  "name": "Graduate Theological Union",
  "dom": "WWW.GTU.EDU",
  "lat": "37.8756063",
  "lng": "-122.2618405"
}, {
  "name": "Grossmont Adult School `",
  "dom": "guhsd.net",
  "lat": "32.7804609",
  "lng": "-116.9861934"
}, {
  "name": "Grossmont College",
  "dom": "grossmont.gcccd.cc.ca.us",
  "lat": "32.8167834",
  "lng": "-117.0061375"
}, {
  "name": "Grossmont-Cuyamaca Community College District",
  "dom": "gcccd.net",
  "lat": "32.8167834",
  "lng": "-117.0061375"
}, {
  "name": "Hacienda La Puente Unified School District-Adult Education",
  "dom": "hlpusd.k12.ca.us",
  "lat": "34.0100116",
  "lng": "-117.9586089"
}, {
  "name": "Hanford Adult School",
  "dom": "hjhsd.k12.ca.us",
  "lat": "36.3337599",
  "lng": "-119.6632433"
}, {
  "name": "Harbor Career College",
  "dom": "harborcareercollege.edu",
  "lat": "34.0621344",
  "lng": "-118.3188512"
}, {
  "name": "Harbor Occupational Center",
  "dom": "lausd.k12.ca.us",
  "lat": "33.7498404",
  "lng": "-118.2867147"
}, {
  "name": "Hartnell College",
  "dom": "hartnell.edu",
  "lat": "36.6747213",
  "lng": "-121.6648996"
}, {
  "name": "Harvey Mudd College",
  "dom": "hmc.edu",
  "lat": "34.1058905",
  "lng": "-117.712125"
}, {
  "name": "Hayward Adult School",
  "dom": "haywardadult.k12.ca.us",
  "lat": "37.6725781",
  "lng": "-122.0980217"
}, {
  "name": "Heald College - Central Administrative Office",
  "dom": "heald.edu",
  "lat": "37.92554",
  "lng": "-122.058403"
}, {
  "name": "Healing Hands School of Holistic Health",
  "dom": "healinghandsschool.com",
  "lat": "33.129562",
  "lng": "-117.086143"
}, {
  "name": "Heartwood Institute",
  "dom": "heartwoodinstitute.com",
  "lat": "40.05002899999999",
  "lng": "-123.5701062"
}, {
  "name": "Henley-Putnam University",
  "dom": "henley-putnam.edu",
  "lat": "37.391228",
  "lng": "-121.977993"
}, {
  "name": "Holy Names University",
  "dom": "hnu.edu",
  "lat": "37.80249",
  "lng": "-122.186495"
}, {
  "name": "Hope International University",
  "dom": "hiu.edu",
  "lat": "33.8768843",
  "lng": "-117.8851358"
}, {
  "name": "Horizon University",
  "dom": "horizoncollege.org",
  "lat": "32.912847",
  "lng": "-117.109537"
}, {
  "name": "Humboldt State University",
  "dom": "humboldt.edu",
  "lat": "40.8744392",
  "lng": "-124.0790979"
}, {
  "name": "Humphreys College - Stockton",
  "dom": "humphreys.edu",
  "lat": "38.011014",
  "lng": "-121.31622"
}, {
  "name": "Huntington Beach Adult School",
  "dom": "hbuhsd.k12.ca.us",
  "lat": "33.720307",
  "lng": "-118.003396"
}, {
  "name": "Huntington Park - Bell Community Adult School",
  "dom": "hpbell.com",
  "lat": "33.988076",
  "lng": "-118.21724"
}, {
  "name": "Hypnosis Motivation Institute",
  "dom": "hypnosis.edu",
  "lat": "34.1701706",
  "lng": "-118.5387697"
}, {
  "name": "ICDC College",
  "dom": "learncareer.com",
  "lat": "34.0972638",
  "lng": "-118.3084569"
}, {
  "name": "ICR Graduate School",
  "dom": "icr.edu",
  "lat": "32.845256",
  "lng": "-116.959608"
}, {
  "name": "INTRAX International Institute",
  "dom": "intraxinstitute.edu",
  "lat": "37.792812",
  "lng": "-122.4048554"
}, {
  "name": "Imperial Valley College",
  "dom": "imperial.edu",
  "lat": "32.82587",
  "lng": "-115.505147"
}, {
  "name": "Imperial Valley ROP",
  "dom": "icoe.k12.ca.us",
  "lat": "32.7914678",
  "lng": "-115.5588891"
}, {
  "name": "Innovative Corporate Solutions",
  "dom": "dalecarnegieofsandiego.com",
  "lat": "32.823322",
  "lng": "-117.247403"
}, {
  "name": "Institute for Business and Technology",
  "dom": "WWW.IBTTECH.COM",
  "lat": "37.368608",
  "lng": "-121.969408"
}, {
  "name": "Institute of Medical Education",
  "dom": "imededu.com",
  "lat": "37.4108113",
  "lng": "-121.9333283"
}, {
  "name": "Institute of Technology - Redding",
  "dom": "it-colleges.com",
  "lat": "40.575027",
  "lng": "-122.362678"
}, {
  "name": "Institute of Transpersonal Psychology",
  "dom": "itp.edu",
  "lat": "37.42945580000001",
  "lng": "-122.1058561"
}, {
  "name": "International Reformed University and Seminary",
  "dom": "iruniv.org",
  "lat": "34.0719802",
  "lng": "-118.291955"
}, {
  "name": "International Sports Sciences Association",
  "dom": "issaonline.edu",
  "lat": "34.3876127",
  "lng": "-119.4859117"
}, {
  "name": "International Technological University",
  "dom": "itu.edu",
  "lat": "37.3317421",
  "lng": "-121.8956601"
}, {
  "name": "International Theological Seminary",
  "dom": "itsla.edu",
  "lat": "34.0671092",
  "lng": "-118.0362637"
}, {
  "name": "Irell and Manella Graduate School of Biological Sciences",
  "dom": "gradschool.coh.org",
  "lat": "34.1296338",
  "lng": "-117.9707674"
}, {
  "name": "Irvine Valley College",
  "dom": "ivc.edu",
  "lat": "33.6777702",
  "lng": "-117.7779014"
}, {
  "name": "Ivory Dental Technology College",
  "dom": "ivorydentalcollege.com",
  "lat": "33.7616561",
  "lng": "-117.9895194"
}, {
  "name": "Jefferson Adult Education Division",
  "dom": "juhsd.net",
  "lat": "37.6684197",
  "lng": "-122.4775436"
}, {
  "name": "John F Kennedy University",
  "dom": "jfku.edu",
  "lat": "37.95664790000001",
  "lng": "-122.0546999"
}, {
  "name": "John Tracy Clinic",
  "dom": "jtc.org",
  "lat": "34.0301212",
  "lng": "-118.2808867"
}, {
  "name": "Jordan-Locke Community Adult School",
  "dom": "jordanlockecas.yahoo.com",
  "lat": "33.935922",
  "lng": "-118.2669692"
}, {
  "name": "Kaiser Permanente School of Allied Health",
  "dom": "kpsahs.org",
  "lat": "37.917372",
  "lng": "-122.3558535"
}, {
  "name": "Kaplan College - Modesto Campus",
  "dom": "MARICCOLLEGE.EDU",
  "lat": "37.71375829999999",
  "lng": "-121.0878938"
}, {
  "name": "Kaplan College - North Hollywood",
  "dom": "WWW.MODERNTEC.COM",
  "lat": "34.1825604",
  "lng": "-118.3956875"
}, {
  "name": "Kaplan College - Panorama City",
  "dom": "ceicollege.com",
  "lat": "34.2224549",
  "lng": "-118.446213"
}, {
  "name": "Kaplan College - San Diego",
  "dom": "mariccollege.edu",
  "lat": "32.8218654",
  "lng": "-117.132831"
}, {
  "name": "Kaplan International Centers",
  "dom": "aspectworld.com",
  "lat": "34.4254659",
  "lng": "-119.7106177"
}, {
  "name": "Keck Graduate Institute",
  "dom": "kgi.edu",
  "lat": "34.0932172",
  "lng": "-117.723535"
}, {
  "name": "Kings County ROP",
  "dom": "kings.k12.ca.us",
  "lat": "36.32835050000001",
  "lng": "-119.6634424"
}, {
  "name": "Laguna College of Art and Design",
  "dom": "lagunacollege.edu",
  "lat": "33.5607241",
  "lng": "-117.7727516"
}, {
  "name": "Lake Tahoe Community College",
  "dom": "ltcc.edu",
  "lat": "38.92737030000001",
  "lng": "-119.9732284"
}, {
  "name": "Laney College",
  "dom": "laney.peralta.cc.ca.us",
  "lat": "37.7949249",
  "lng": "-122.263102"
}, {
  "name": "Language Studies International",
  "dom": "lsi.edu",
  "lat": "32.723269",
  "lng": "-117.160512"
}, {
  "name": "Las Positas College",
  "dom": "laspositas.cc.ca.us",
  "lat": "37.7113932",
  "lng": "-121.7998302"
}, {
  "name": "Lassen Community College",
  "dom": "lassencollege.edu",
  "lat": "40.5893461",
  "lng": "-120.6416021"
}, {
  "name": "Lemoore Adult School",
  "dom": "luhsd.k12.ca.us",
  "lat": "36.2982908",
  "lng": "-119.7764939"
}, {
  "name": "Liberty Adult School",
  "dom": "libertyuhsd.k12.ca.us",
  "lat": "37.93577",
  "lng": "-121.6972089"
}, {
  "name": "Life Chiropractic College-West",
  "dom": "lifewest.edu",
  "lat": "37.6376533",
  "lng": "-122.1181874"
}, {
  "name": "Life Pacific College",
  "dom": "lifepacific.edu",
  "lat": "34.0993665",
  "lng": "-117.8289949"
}, {
  "name": "Lincoln University",
  "dom": "lincolnuca.edu",
  "lat": "37.804726",
  "lng": "-122.269669"
}, {
  "name": "Logos Evangelical Seminary",
  "dom": "logos-seminary.edu",
  "lat": "34.068575",
  "lng": "-118.0648858"
}, {
  "name": "Loma Linda University",
  "dom": "llu.edu",
  "lat": "34.0530666",
  "lng": "-117.2643048"
}, {
  "name": "Long Beach City College",
  "dom": "lbcc.edu",
  "lat": "33.83575580000001",
  "lng": "-118.1369519"
}, {
  "name": "Long Beach School for Adults",
  "dom": "lbusd.k12.ca.us",
  "lat": "33.8051487",
  "lng": "-118.1494953"
}, {
  "name": "Los Angeles City College",
  "dom": "lacitycollege.edu",
  "lat": "34.0892137",
  "lng": "-118.2926686"
}, {
  "name": "Los Angeles County College of Nursing and Allied Health",
  "dom": "ladhs.org",
  "lat": "34.0624252",
  "lng": "-118.2121202"
}, {
  "name": "Los Angeles County ROP",
  "dom": "lacorop.org",
  "lat": "33.9167378",
  "lng": "-118.1298234"
}, {
  "name": "Los Angeles Harbor College",
  "dom": "lahc.edu",
  "lat": "33.7841742",
  "lng": "-118.2837022"
}, {
  "name": "Los Angeles Mission College",
  "dom": "lamission.edu",
  "lat": "34.3146444",
  "lng": "-118.4201066"
}, {
  "name": "Los Angeles Music Academy",
  "dom": "lamusicacademy.edu",
  "lat": "34.13935379999999",
  "lng": "-118.1500287"
}, {
  "name": "Los Angeles ORT College",
  "dom": "laort.com",
  "lat": "34.0642057",
  "lng": "-118.3694712"
}, {
  "name": "Los Angeles Pierce College",
  "dom": "piercecollege.com",
  "lat": "34.1825315",
  "lng": "-118.5709741"
}, {
  "name": "Los Angeles Recording School",
  "dom": "recordingcareer.com",
  "lat": "34.0975562",
  "lng": "-118.3363726"
}, {
  "name": "Los Angeles Southwest College",
  "dom": "lasc.edu",
  "lat": "33.9299969",
  "lng": "-118.3073676"
}, {
  "name": "Los Angeles Trade Technical College",
  "dom": "lattc.edu",
  "lat": "34.0327995",
  "lng": "-118.2694909"
}, {
  "name": "Los Angeles Valley College",
  "dom": "lavc.cc.ca.us",
  "lat": "34.1757132",
  "lng": "-118.4203283"
}, {
  "name": "Los Medanos College",
  "dom": "losmedanos.net",
  "lat": "38.0053337",
  "lng": "-121.8605006"
}, {
  "name": "Loyola Marymount University",
  "dom": "lmu.edu",
  "lat": "33.9663093",
  "lng": "-118.4229655"
}, {
  "name": "Lytle's Redwood Empire Beauty College Inc",
  "dom": "lytles-rebc.com",
  "lat": "38.5086992",
  "lng": "-122.7573422"
}, {
  "name": "MTI Business College Inc",
  "dom": "mtistockton.com",
  "lat": "38.0078814",
  "lng": "-121.3083702"
}, {
  "name": "MTI College",
  "dom": "mticollege.edu",
  "lat": "38.6610193",
  "lng": "-121.3423283"
}, {
  "name": "Manual Arts- Crenshaw Community Adult School",
  "dom": "macecc.org",
  "lat": "34.00877",
  "lng": "-118.292848"
}, {
  "name": "Maria Montessori Teacher Training Center",
  "dom": "oneworldmontessori.org",
  "lat": "37.2772005",
  "lng": "-121.8816574"
}, {
  "name": "Marian Health Careers Center - Los Angeles",
  "dom": "mariancollege-california.com",
  "lat": "34.0621851",
  "lng": "-118.2949261"
}, {
  "name": "Maric College - Pomona",
  "dom": "mariccollege.com",
  "lat": "34.061661",
  "lng": "-117.802114"
}, {
  "name": "Maric College - San Diego",
  "dom": "kaplan.com",
  "lat": "32.78672630000001",
  "lng": "-117.0980026"
}, {
  "name": "Marin County Health and Human Services Psychology Internship",
  "dom": "co.marin.ca.us",
  "lat": "37.9947954",
  "lng": "-122.5290611"
}, {
  "name": "Marinello School of Beauty - Burbank",
  "dom": "elegantebc.com",
  "lat": "34.1817628",
  "lng": "-118.3097499"
}, {
  "name": "Marinello School of Beauty - San Bernardino",
  "dom": "marinello.com",
  "lat": "34.1012191",
  "lng": "-117.2989812"
}, {
  "name": "Marinello School of Beauty - San Francisco",
  "dom": "missmartys.com",
  "lat": "37.781219",
  "lng": "-122.410785"
}, {
  "name": "Marinello School of Beauty - Santa Clara",
  "dom": "cacosmetologycollege.com",
  "lat": "37.3482834",
  "lng": "-121.9475576"
}, {
  "name": "Maritime Institute",
  "dom": "maritimeinstitute.com",
  "lat": "32.724173",
  "lng": "-117.229987"
}, {
  "name": "Martinez Adult Education",
  "dom": "martinez-ed.org",
  "lat": "38.0004967",
  "lng": "-122.1309403"
}, {
  "name": "Marymount College University",
  "dom": "marymountpv.edu",
  "lat": "33.7349893",
  "lng": "-118.3335466"
}, {
  "name": "Medacom College",
  "dom": "itscti.net",
  "lat": "37.534917",
  "lng": "-122.031544"
}, {
  "name": "Medacom College",
  "dom": "ITSCTI.NET",
  "lat": "37.4798179",
  "lng": "-121.9471603"
}, {
  "name": "Medical Career College of Northern California",
  "dom": "medicalcareercollege.net",
  "lat": "38.7017214",
  "lng": "-121.2913736"
}, {
  "name": "Mendocino College",
  "dom": "MendocinoCollege.edu",
  "lat": "39.1889814",
  "lng": "-123.2288632"
}, {
  "name": "Menlo College",
  "dom": "menlo.edu",
  "lat": "37.4561567",
  "lng": "-122.1932415"
}, {
  "name": "Mennonite Brethren Biblical Seminary",
  "dom": "mbseminary.edu",
  "lat": "36.72788610000001",
  "lng": "-119.7360159"
}, {
  "name": "Merced Adult School",
  "dom": "ecec.muhsd.k12.ca.us",
  "lat": "37.3013324",
  "lng": "-120.4732656"
}, {
  "name": "Merced College",
  "dom": "merced.cc.ca.us",
  "lat": "37.33672749999999",
  "lng": "-120.4773294"
}, {
  "name": "Merritt College",
  "dom": "merritt.edu",
  "lat": "37.7906143",
  "lng": "-122.1661517"
}, {
  "name": "Milan Institute",
  "dom": "goldenstatecollege.com",
  "lat": "36.271642",
  "lng": "-119.3122737"
}, {
  "name": "Mills College",
  "dom": "mills.edu",
  "lat": "37.7773987",
  "lng": "-122.1841656"
}, {
  "name": "Miracosta College",
  "dom": "miracosta.edu",
  "lat": "33.189518",
  "lng": "-117.301071"
}, {
  "name": "Mission College",
  "dom": "missioncollege.org",
  "lat": "37.3912164",
  "lng": "-121.9820461"
}, {
  "name": "Mission Valley ROC/P",
  "dom": "myrop.org",
  "lat": "37.53307789999999",
  "lng": "-121.9750348"
}, {
  "name": "Modern Technology School",
  "dom": "moderntechschool.com",
  "lat": "33.7237335",
  "lng": "-117.9197787"
}, {
  "name": "Modesto Junior College",
  "dom": "mjc.yosemite.cc.ca.us",
  "lat": "37.6531003",
  "lng": "-121.0118741"
}, {
  "name": "Monrovia Community Adult School",
  "dom": "monroviaschools.net",
  "lat": "34.141849",
  "lng": "-117.985441"
}, {
  "name": "Montebello Adult Schools",
  "dom": "montebello.k12.ca.us",
  "lat": "34.0154457",
  "lng": "-118.1227216"
}, {
  "name": "Monterey Adult School",
  "dom": "mpusd.k12.ca.us",
  "lat": "36.6012719",
  "lng": "-121.8662633"
}, {
  "name": "Monterey Peninsula College",
  "dom": "mpc.edu",
  "lat": "36.5903147",
  "lng": "-121.8854687"
}, {
  "name": "Montessori Center for Teacher Education",
  "dom": "sandiego-ncme.org",
  "lat": "32.825201",
  "lng": "-117.209326"
}, {
  "name": "Montessori Institute of Advanced Studies (AMS)",
  "dom": "montessoritraining.com",
  "lat": "37.6913311",
  "lng": "-122.0405238"
}, {
  "name": "Montessori Teacher Education Center - San Francisco Bay Area",
  "dom": "MontessoriTECSF.com",
  "lat": "37.6985143",
  "lng": "-122.1057212"
}, {
  "name": "Montessori Training Center",
  "dom": "mtcsac.com",
  "lat": "38.6697812",
  "lng": "-120.9118758"
}, {
  "name": "Montessori Western Teacher Training Program",
  "dom": "montessorigreenhouse.com",
  "lat": "33.7852625",
  "lng": "-118.0317279"
}, {
  "name": "Moorpark College",
  "dom": "moorparkcollege.edu",
  "lat": "34.3017554",
  "lng": "-118.8351524"
}, {
  "name": "Morgan Hill Community Adult School",
  "dom": "cas.mhu.k12.ca.us",
  "lat": "37.13568679999999",
  "lng": "-121.6589852"
}, {
  "name": "Mount St. Mary's College",
  "dom": "msmc.la.edu",
  "lat": "34.0857827",
  "lng": "-118.4828207"
}, {
  "name": "Mountain View - Los Altos Adult Education",
  "dom": "mvlaae.org",
  "lat": "37.3984471",
  "lng": "-122.0750141"
}, {
  "name": "Mt San Antonio College",
  "dom": "mtsac.edu",
  "lat": "34.0465166",
  "lng": "-117.8476452"
}, {
  "name": "Mt San Jacinto College",
  "dom": "msjc.edu",
  "lat": "33.806842",
  "lng": "-116.966682"
}, {
  "name": "Mt Sierra College",
  "dom": "mtsierra.edu",
  "lat": "34.1409951",
  "lng": "-117.9991346"
}, {
  "name": "Mt. Diablo  Adult Education",
  "dom": "mdusd.k12.ca.us",
  "lat": "37.968609",
  "lng": "-122.026447"
}, {
  "name": "Musicians Institute",
  "dom": "mi.edu",
  "lat": "34.101311",
  "lng": "-118.3376997"
}, {
  "name": "NTMA Training Centers of Southern California",
  "dom": "trainingcenters.org",
  "lat": "33.895262",
  "lng": "-118.0636012"
}, {
  "name": "Napa Valley College",
  "dom": "nvc.cc.ca.us",
  "lat": "38.2743057",
  "lng": "-122.2777462"
}, {
  "name": "National Career College",
  "dom": "dtisc.com",
  "lat": "34.1953671",
  "lng": "-118.4484472"
}, {
  "name": "National Career Education",
  "dom": "ncecollege.com",
  "lat": "38.5897623",
  "lng": "-121.2722693"
}, {
  "name": "National Holistic Institute",
  "dom": "nhimassage.com",
  "lat": "37.8418717",
  "lng": "-122.2878681"
}, {
  "name": "National Polytechnic College of Science",
  "dom": "WWW.natpoly.edu",
  "lat": "33.7667911",
  "lng": "-118.2637036"
}, {
  "name": "National University",
  "dom": "nu.edu",
  "lat": "32.909734",
  "lng": "-117.242874"
}, {
  "name": "Naval Postgraduate School",
  "dom": "nps.navy.mil",
  "lat": "36.5977259",
  "lng": "-121.8746904"
}, {
  "name": "New Charter University",
  "dom": "new.edu",
  "lat": "37.7876539",
  "lng": "-122.3967728"
}, {
  "name": "New College of California",
  "dom": "newcollege.edu",
  "lat": "37.760565",
  "lng": "-122.421188"
}, {
  "name": "New Haven Adult School",
  "dom": "nhusd.k12.ca.us",
  "lat": "37.6000373",
  "lng": "-122.0197932"
}, {
  "name": "New Technology Training Institute",
  "dom": "newtechtrain.com",
  "lat": "34.114916",
  "lng": "-118.264783"
}, {
  "name": "NewSchool of Architecture and Design",
  "dom": "newschoolarch.edu",
  "lat": "32.7134965",
  "lng": "-117.1533359"
}, {
  "name": "Newbridge College",
  "dom": "WWW.NEWBRIDGECOLLEGE.COM",
  "lat": "33.7594317",
  "lng": "-117.8409591"
}, {
  "name": "Newbridge College - El Cajon",
  "dom": "valleycareercollege.com",
  "lat": "32.8066569",
  "lng": "-116.9734789"
}, {
  "name": "Newbridge College-Burbank",
  "dom": "WWW.RBIWORKS.COM",
  "lat": "34.1828357",
  "lng": "-118.3102027"
}, {
  "name": "Newbridge College-Monterey Park",
  "dom": "mpcollege.com",
  "lat": "34.056226",
  "lng": "-118.147889"
}, {
  "name": "Newport-Mesa Unified School District Adult Education Program",
  "dom": "nmusd.k12.ca.us",
  "lat": "33.6499036",
  "lng": "-117.9248301"
}, {
  "name": "Norco College",
  "dom": "rcc.edu",
  "lat": "33.9157814",
  "lng": "-117.5688466"
}, {
  "name": "North Orange County Regional Occupational Program",
  "dom": "nocrop.tec.ca.us",
  "lat": "33.836536",
  "lng": "-117.950706"
}, {
  "name": "North Valley Occupational Center - Aviation Center",
  "dom": "nvoc-ac.org",
  "lat": "34.2779938",
  "lng": "-118.4565595"
}, {
  "name": "North-West College - Glendale",
  "dom": "north-westcollege.com",
  "lat": "34.1488998",
  "lng": "-118.2554221"
}, {
  "name": "North-West College - Riverside",
  "dom": "WWW.NORTH-WESTCOLLEGE.COM",
  "lat": "33.9082579",
  "lng": "-117.450785"
}, {
  "name": "Northwest Lineman College - Oroville Campus",
  "dom": "lineman.edu",
  "lat": "39.4960934",
  "lng": "-121.609265"
}, {
  "name": "Northwestern Polytechnic University",
  "dom": "npu.edu",
  "lat": "37.4810356",
  "lng": "-121.9252331"
}, {
  "name": "Notre Dame de Namur University",
  "dom": "ndnu.edu",
  "lat": "37.5175516",
  "lng": "-122.2848524"
}, {
  "name": "OSULA Education Center",
  "dom": "osula.com",
  "lat": "34.1415354",
  "lng": "-118.3948395"
}, {
  "name": "Occidental College",
  "dom": "oxy.edu",
  "lat": "34.1295324",
  "lng": "-118.2106612"
}, {
  "name": "Occupational Training Services Inc",
  "dom": "WWW.OTS-SDCHC.ORG",
  "lat": "32.819378",
  "lng": "-117.138733"
}, {
  "name": "Oceanside College of Beauty",
  "dom": "ocb.edu",
  "lat": "33.178452",
  "lng": "-117.365367"
}, {
  "name": "Ohlone College",
  "dom": "ohlone.edu",
  "lat": "37.531063",
  "lng": "-121.9136101"
}, {
  "name": "Olivet University",
  "dom": "olivetuniversity.edu",
  "lat": "37.78236",
  "lng": "-122.402096"
}, {
  "name": "Opportunities Industrialization Center - West",
  "dom": "oicw.org",
  "lat": "37.475949",
  "lng": "-122.146449"
}, {
  "name": "Orange Coast College",
  "dom": "occ.cccd.edu",
  "lat": "33.6698042",
  "lng": "-117.9090819"
}, {
  "name": "Otay Mesa Adult School - R.J. Donovan Correctional Facility",
  "dom": "cdc.state.ca.us",
  "lat": "32.5816426",
  "lng": "-116.9291852"
}, {
  "name": "Otis College of Art and Design",
  "dom": "otis.edu",
  "lat": "33.9566318",
  "lng": "-118.4167179"
}, {
  "name": "Oxman College",
  "dom": "oxmancollege.com",
  "lat": "37.7816259",
  "lng": "-122.4611826"
}, {
  "name": "Oxnard Adult School",
  "dom": "ouhsd.k12.ca.us",
  "lat": "34.2015914",
  "lng": "-119.1903875"
}, {
  "name": "Oxnard College",
  "dom": "oxnardcollege.edu",
  "lat": "34.1631599",
  "lng": "-119.1593214"
}, {
  "name": "POLY Languages Institute",
  "dom": "polylanguages.edu",
  "lat": "34.145893",
  "lng": "-118.090148"
}, {
  "name": "Pacific Coast College",
  "dom": "pacificcoastcollege.net",
  "lat": "33.77866",
  "lng": "-118.1933"
}, {
  "name": "Pacific College",
  "dom": "pacific-college.com",
  "lat": "33.6800776",
  "lng": "-117.8732595"
}, {
  "name": "Pacific College of Oriental Medicine",
  "dom": "PacificCollege.edu",
  "lat": "32.778348",
  "lng": "-117.160428"
}, {
  "name": "Pacific Grove Adult School",
  "dom": "pgusd.org",
  "lat": "36.6266544",
  "lng": "-121.9287364"
}, {
  "name": "Pacific Oaks College",
  "dom": "pacificoaks.edu",
  "lat": "34.1515656",
  "lng": "-118.1604791"
}, {
  "name": "Pacific School of Religion",
  "dom": "psr.edu",
  "lat": "37.8767189",
  "lng": "-122.2629744"
}, {
  "name": "Pacific States University",
  "dom": "psuca.edu",
  "lat": "34.0614277",
  "lng": "-118.2995584"
}, {
  "name": "Pacific Union College",
  "dom": "puc.edu",
  "lat": "38.5697401",
  "lng": "-122.4418299"
}, {
  "name": "Pacifica Graduate Institute",
  "dom": "pacifica.edu",
  "lat": "34.4217129",
  "lng": "-119.580588"
}, {
  "name": "Palladium Technical Academy",
  "dom": "palladiumta.com",
  "lat": "34.0766626",
  "lng": "-118.0437227"
}, {
  "name": "Palo Alto Adult School",
  "dom": "paadultschool.org",
  "lat": "37.4373735",
  "lng": "-122.1577085"
}, {
  "name": "Palo Alto University",
  "dom": "paloaltou.edu",
  "lat": "37.382454",
  "lng": "-122.1874271"
}, {
  "name": "Palo Verde College",
  "dom": "paloverde.edu",
  "lat": "35.3090047",
  "lng": "-119.1176005"
}, {
  "name": "Palomar College",
  "dom": "WWW.PALOMAR.EDU",
  "lat": "33.1473532",
  "lng": "-117.1854475"
}, {
  "name": "Palomar Institute of Cosmetology",
  "dom": "pic.edu",
  "lat": "33.136477",
  "lng": "-117.188045"
}, {
  "name": "Paramount Adult Education Center",
  "dom": "paramount.k12.ca.us",
  "lat": "33.9016931",
  "lng": "-118.1612253"
}, {
  "name": "Pardee Rand Graduate School of Policy Studies",
  "dom": "prgs.edu",
  "lat": "34.0096038",
  "lng": "-118.4907507"
}, {
  "name": "Paris Beauty College",
  "dom": "Parisbeautycollege.com",
  "lat": "37.9729888",
  "lng": "-122.0435228"
}, {
  "name": "Pasadena City College",
  "dom": "pasadena.edu",
  "lat": "34.1439329",
  "lng": "-118.119168"
}, {
  "name": "Pasadena Conservatory of Music",
  "dom": "pasadenaconservatory.org",
  "lat": "34.1478853",
  "lng": "-118.1210995"
}, {
  "name": "Patten University",
  "dom": "patten.edu",
  "lat": "37.7862604",
  "lng": "-122.2195419"
}, {
  "name": "Paul Mitchell the School - Costa Mesa",
  "dom": "paulmitchelltheschool.com",
  "lat": "33.6949764",
  "lng": "-117.9274342"
}, {
  "name": "Pepperdine University",
  "dom": "pepperdine.edu",
  "lat": "34.0378236",
  "lng": "-118.7072927"
}, {
  "name": "Perelandra College",
  "dom": "perelandra.edu",
  "lat": "32.7643932",
  "lng": "-117.0175508"
}, {
  "name": "Phillips Graduate Institute",
  "dom": "pgi.edu",
  "lat": "34.169944",
  "lng": "-118.502004"
}, {
  "name": "Pittsburg Adult Education Center",
  "dom": "pittsburg.k12.ca.us",
  "lat": "38.0047255",
  "lng": "-121.8744724"
}, {
  "name": "Pitzer College",
  "dom": "pitzer.edu",
  "lat": "34.1041294",
  "lng": "-117.7063608"
}, {
  "name": "Platt College-Los Angeles",
  "dom": "plattcollege.edu",
  "lat": "34.0779881",
  "lng": "-118.1415261"
}, {
  "name": "Platt College-San Diego",
  "dom": "platt.edu",
  "lat": "32.76382",
  "lng": "-117.0637012"
}, {
  "name": "Point Loma Nazarene University",
  "dom": "pointloma.edu",
  "lat": "32.7169871",
  "lng": "-117.2510209"
}, {
  "name": "Pomona College",
  "dom": "pomona.edu",
  "lat": "34.0989512",
  "lng": "-117.71452"
}, {
  "name": "Pomona Unified School District Adult and Career Education",
  "dom": "pusd.org",
  "lat": "34.0547961",
  "lng": "-117.7726103"
}, {
  "name": "Porterville College",
  "dom": "pc.cc.ca.us",
  "lat": "36.0489004",
  "lng": "-119.0161748"
}, {
  "name": "Preferred College of Nursing",
  "dom": "pcnla.com",
  "lat": "34.0612905",
  "lng": "-118.298506"
}, {
  "name": "Premiere Career College",
  "dom": "premierecollege.edu",
  "lat": "34.07985",
  "lng": "-117.990333"
}, {
  "name": "Presidio Graduate School",
  "dom": "presidiomba.org",
  "lat": "37.8012273",
  "lng": "-122.4560615"
}, {
  "name": "Professional Golfers Career College",
  "dom": "golfcollege.edu",
  "lat": "33.5289258",
  "lng": "-117.1637183"
}, {
  "name": "Professional Institute of Beauty",
  "dom": "pibschool.com",
  "lat": "34.0754569",
  "lng": "-118.0390266"
}, {
  "name": "Providence Christian College",
  "dom": "providencecc.net",
  "lat": "34.1724599",
  "lng": "-118.1188369"
}, {
  "name": "Public Health Foundation Enterprises WIC Program Dietetic Internship",
  "dom": "phfewic.org",
  "lat": "34.08122",
  "lng": "-117.995263"
}, {
  "name": "Q International School",
  "dom": "wordwide.us",
  "lat": "32.743149",
  "lng": "-117.248635"
}, {
  "name": "Queen of the Holy Rosary College",
  "dom": "msjdominicans.org",
  "lat": "37.4954343",
  "lng": "-121.9290125"
}, {
  "name": "RWM Fiber Optics, Inc",
  "dom": "rwmfiber.com",
  "lat": "33.8810559",
  "lng": "-118.2647672"
}, {
  "name": "Redlands Adult School",
  "dom": "redlands.k12.ca.us",
  "lat": "34.0718582",
  "lng": "-117.1825242"
}, {
  "name": "Reedley College",
  "dom": "reedleycollege.edu",
  "lat": "36.6053897",
  "lng": "-119.4600097"
}, {
  "name": "Rio Hondo College",
  "dom": "riohondo.edu",
  "lat": "34.018956",
  "lng": "-118.033517"
}, {
  "name": "Riverside Adult School",
  "dom": "rusd.k12.ca.us",
  "lat": "33.951495",
  "lng": "-117.3989697"
}, {
  "name": "Riverside County Office of Education, Vocational Ed/ROP",
  "dom": "rcoe.k12.ca.us",
  "lat": "33.9789061",
  "lng": "-117.3804219"
}, {
  "name": "Robert M. Scherer & Associates, Inc. Dale Carnegie Training",
  "dom": "sacramento-dalecarnegie.com",
  "lat": "38.597409",
  "lng": "-121.447554"
}, {
  "name": "Rosemead College of English",
  "dom": "rosemeadcollege.com",
  "lat": "34.0805946",
  "lng": "-118.0804483"
}, {
  "name": "SDCCD Continuing Education",
  "dom": "sdccd.net",
  "lat": "32.6994566",
  "lng": "-117.1018875"
}, {
  "name": "SUM Bible College & Theological Seminary - Main Campus",
  "dom": "sum.edu",
  "lat": "37.7338242",
  "lng": "-122.1780614"
}, {
  "name": "Sacramento City College",
  "dom": "scc.losrios.edu",
  "lat": "38.5425669",
  "lng": "-121.4866462"
}, {
  "name": "Sacramento Job Corps Center",
  "dom": "jcdc.jobcorps.org",
  "lat": "38.4812508",
  "lng": "-121.4725124"
}, {
  "name": "Saddleback College",
  "dom": "saddleback.cc.ca.us",
  "lat": "33.5478761",
  "lng": "-117.6658455"
}, {
  "name": "Saddleback Valley U.S.D. - Adult Education",
  "dom": "goadulted.com",
  "lat": "33.6210722",
  "lng": "-117.6831217"
}, {
  "name": "Sage College",
  "dom": "sagecollege.edu",
  "lat": "33.9445162",
  "lng": "-117.2810403"
}, {
  "name": "Saint Johns Seminary",
  "dom": "stjohnsem.edu",
  "lat": "34.2428017",
  "lng": "-119.0053066"
}, {
  "name": "Saint Mary's College of California",
  "dom": "stmarys-ca.edu",
  "lat": "37.8413472",
  "lng": "-122.1101353"
}, {
  "name": "Saint Patrick's Seminary and University",
  "dom": "stpatricksseminary.org",
  "lat": "37.45887",
  "lng": "-122.167954"
}, {
  "name": "Salinas Adult School",
  "dom": "salinasadultschool.com",
  "lat": "36.6873878",
  "lng": "-121.6461533"
}, {
  "name": "Salon Success Academy",
  "dom": "gotobeautyschool.com",
  "lat": "33.8477096",
  "lng": "-117.5356664"
}, {
  "name": "Salvation Army College for Officer Training at Crestmont",
  "dom": "crestmontcollege.edu",
  "lat": "33.744029",
  "lng": "-118.3985306"
}, {
  "name": "Samra University of Oriental Medicine",
  "dom": "samra.edu",
  "lat": "34.0498538",
  "lng": "-118.2763991"
}, {
  "name": "Samuel Merritt University",
  "dom": "samuelmerritt.edu",
  "lat": "37.821535",
  "lng": "-122.26307"
}, {
  "name": "San Bernardino County ROP",
  "dom": "rop.cc",
  "lat": "34.1104112",
  "lng": "-117.2934492"
}, {
  "name": "San Bernardino Valley College",
  "dom": "valleycollege.edu",
  "lat": "34.0884848",
  "lng": "-117.3137562"
}, {
  "name": "San Diego Christian College",
  "dom": "christianheritage.edu",
  "lat": "32.799993",
  "lng": "-116.902411"
}, {
  "name": "San Diego City College",
  "dom": "sdcity.edu",
  "lat": "32.7174906",
  "lng": "-117.1527712"
}, {
  "name": "San Diego Job  Corps Center",
  "dom": "sandiegojobcorps.org",
  "lat": "32.5690207",
  "lng": "-117.1035023"
}, {
  "name": "San Diego Mesa College",
  "dom": "sandiegomesacollege.net",
  "lat": "32.8037655",
  "lng": "-117.1690485"
}, {
  "name": "San Diego Miramar College",
  "dom": "miramarcollege.net",
  "lat": "32.9062534",
  "lng": "-117.1224117"
}, {
  "name": "San Diego State University",
  "dom": "sdsu.edu",
  "lat": "32.7753492",
  "lng": "-117.0712315"
}, {
  "name": "San Diego State University-Imperial Valley Campus",
  "dom": "ivcampus.sdsu.edu",
  "lat": "32.671653",
  "lng": "-115.493261"
}, {
  "name": "San Francisco Art Institute",
  "dom": "sfai.edu",
  "lat": "37.8033836",
  "lng": "-122.4172055"
}, {
  "name": "San Francisco Conservatory of Music",
  "dom": "sfcm.edu",
  "lat": "37.775558",
  "lng": "-122.4203467"
}, {
  "name": "San Francisco State University",
  "dom": "sfsu.edu",
  "lat": "37.7239338",
  "lng": "-122.4831751"
}, {
  "name": "San Francisco Theological Seminary",
  "dom": "WWW.SFTS.EDU",
  "lat": "37.9695926",
  "lng": "-122.5648069"
}, {
  "name": "San Joaquin College of Law",
  "dom": "sjcl.edu",
  "lat": "36.8246434",
  "lng": "-119.6976972"
}, {
  "name": "San Joaquin Delta College",
  "dom": "deltacollege.edu",
  "lat": "37.995364",
  "lng": "-121.319324"
}, {
  "name": "San Joaquin Valley College",
  "dom": "sjvc.edu",
  "lat": "36.3278704",
  "lng": "-119.3854779"
}, {
  "name": "San Jose City College",
  "dom": "SJCC.EDU",
  "lat": "37.3158432",
  "lng": "-121.9262891"
}, {
  "name": "San Jose Job Corps Center",
  "dom": "sanjosejobcorps.org",
  "lat": "37.3669614",
  "lng": "-121.82053"
}, {
  "name": "San Jose State University",
  "dom": "sjsu.edu",
  "lat": "37.3347439",
  "lng": "-121.8849183"
}, {
  "name": "San Juan Adult Education",
  "dom": "sanjuan.edu",
  "lat": "38.6333",
  "lng": "-121.345353"
}, {
  "name": "San Mateo Adult School",
  "dom": "smace.org",
  "lat": "37.5778429",
  "lng": "-122.3282073"
}, {
  "name": "Sanford-Burnham Medical Research Institute",
  "dom": "burnham.org",
  "lat": "32.901373",
  "lng": "-117.241541"
}, {
  "name": "Santa Ana College",
  "dom": "sac.edu",
  "lat": "33.7593657",
  "lng": "-117.886616"
}, {
  "name": "Santa Barbara Business College - Bakersfield",
  "dom": "sbbcollege.com",
  "lat": "35.3595766",
  "lng": "-119.0613058"
}, {
  "name": "Santa Barbara City College",
  "dom": "sbcc.edu",
  "lat": "34.4069141",
  "lng": "-119.6952671"
}, {
  "name": "Santa Barbara College of Oriental Medicine",
  "dom": "sbcom.edu",
  "lat": "34.4301878",
  "lng": "-119.7142332"
}, {
  "name": "Santa Clara University",
  "dom": "scu.edu",
  "lat": "37.3499438",
  "lng": "-121.9406449"
}, {
  "name": "Santa Cruz Adult Education",
  "dom": "adulted.santacruz.k12.ca.us",
  "lat": "36.959135",
  "lng": "-122.05856"
}, {
  "name": "Santa Cruz County ROP",
  "dom": "rop.santacruz.k12.ca.us",
  "lat": "36.9805247",
  "lng": "-121.9561085"
}, {
  "name": "Santa Monica College",
  "dom": "smc.edu",
  "lat": "34.0180525",
  "lng": "-118.4718165"
}, {
  "name": "Santa Rosa Junior College",
  "dom": "santarosa.edu",
  "lat": "38.458207",
  "lng": "-122.719725"
}, {
  "name": "Santiago Canyon College",
  "dom": "sccollege.edu",
  "lat": "33.7955645",
  "lng": "-117.7666415"
}, {
  "name": "Saybrook Graduate School and Research Center",
  "dom": "saybrook.edu",
  "lat": "37.7984561",
  "lng": "-122.3999945"
}, {
  "name": "Scandinavian Aviation Academy",
  "dom": "scanavia.com",
  "lat": "32.8174322",
  "lng": "-116.9756653"
}, {
  "name": "Scripps College",
  "dom": "WWW.SCRIPPSCOLLEGE.EDU",
  "lat": "34.1034173",
  "lng": "-117.7113594"
}, {
  "name": "Scripps Research Institute",
  "dom": "scripps.edu",
  "lat": "32.8956269",
  "lng": "-117.2423677"
}, {
  "name": "Sequoia District Adult School",
  "dom": "seq.org",
  "lat": "37.4715915",
  "lng": "-122.2031432"
}, {
  "name": "Shasta Bible College & Graduate School",
  "dom": "shasta.edu",
  "lat": "40.5657856",
  "lng": "-122.3142728"
}, {
  "name": "Shasta College",
  "dom": "shastacollege.edu",
  "lat": "40.62418340000001",
  "lng": "-122.3178543"
}, {
  "name": "Sierra College",
  "dom": "sierracollege.edu",
  "lat": "38.7903808",
  "lng": "-121.2132201"
}, {
  "name": "Sierra Valley College of Court Reporting",
  "dom": "sierravalleycollege.com",
  "lat": "36.8039562",
  "lng": "-119.773992"
}, {
  "name": "Silicon Valley College",
  "dom": "WWW.SILICONVALLEY.EDU",
  "lat": "37.2353732",
  "lng": "-121.77606"
}, {
  "name": "Silicon Valley College",
  "dom": "WWW.Svcollege.com",
  "lat": "37.9313884",
  "lng": "-122.0217454"
}, {
  "name": "Silicon Valley College - Fremont",
  "dom": "SILICONVALLEY.EDU",
  "lat": "37.5138085",
  "lng": "-121.9817685"
}, {
  "name": "Silicon Valley College-Emeryville",
  "dom": "siliconvalley.edu",
  "lat": "37.8467847",
  "lng": "-122.2927772"
}, {
  "name": "Silicon Valley University",
  "dom": "svuca.edu",
  "lat": "37.397802",
  "lng": "-121.890288"
}, {
  "name": "Simi Valley Adult School and Career Institute",
  "dom": "simi.tec.ca.us",
  "lat": "34.269221",
  "lng": "-118.7350517"
}, {
  "name": "Simpson University",
  "dom": "simpsonuniversity.edu",
  "lat": "40.614857",
  "lng": "-122.330271"
}, {
  "name": "Skyline College",
  "dom": "skylinecollege.net",
  "lat": "37.6309074",
  "lng": "-122.4672096"
}, {
  "name": "Soka University of America",
  "dom": "soka.edu",
  "lat": "33.5558085",
  "lng": "-117.7334189"
}, {
  "name": "Solano Community College",
  "dom": "solano.edu",
  "lat": "38.235739",
  "lng": "-122.122692"
}, {
  "name": "Sonoma College",
  "dom": "sonomacollege.com",
  "lat": "38.2607074",
  "lng": "-122.6468105"
}, {
  "name": "Sonoma State University",
  "dom": "sonoma.edu",
  "lat": "38.3393615",
  "lng": "-122.6733474"
}, {
  "name": "South Baylo University",
  "dom": "southbaylo.edu",
  "lat": "33.8482167",
  "lng": "-117.9586062"
}, {
  "name": "South Coast College",
  "dom": "SOUTHCOASTCOLLEGE.COM",
  "lat": "33.7882218",
  "lng": "-117.8739946"
}, {
  "name": "South San Francisco Adult Education",
  "dom": "smcoe.k12.ca.us",
  "lat": "37.6499984",
  "lng": "-122.4362119"
}, {
  "name": "Southern California College of Optometry",
  "dom": "scco.edu",
  "lat": "33.8892209",
  "lng": "-117.886276"
}, {
  "name": "Southern California Health Institute",
  "dom": "ippt.com",
  "lat": "34.1651369",
  "lng": "-118.3744455"
}, {
  "name": "Southern California Institute of Architecture",
  "dom": "sciarc.edu",
  "lat": "34.043855",
  "lng": "-118.23289"
}, {
  "name": "Southern California Institute of Technology",
  "dom": "scitcollege.com",
  "lat": "33.8325513",
  "lng": "-117.9185621"
}, {
  "name": "Southern California Seminary",
  "dom": "socalsem.edu",
  "lat": "32.799631",
  "lng": "-116.9054509"
}, {
  "name": "Southern California University SOMA",
  "dom": "scusoma.edu",
  "lat": "34.05569030000001",
  "lng": "-118.2696501"
}, {
  "name": "Southern California University of Health Sciences",
  "dom": "scuhs.edu",
  "lat": "33.9234984",
  "lng": "-117.9817941"
}, {
  "name": "Southern States University - Newport Beach",
  "dom": "ssu-us.org",
  "lat": "33.6644078",
  "lng": "-117.8665306"
}, {
  "name": "Southwestern College",
  "dom": "swc.cc.ca.us",
  "lat": "32.6408234",
  "lng": "-116.9954977"
}, {
  "name": "Southwestern Law School",
  "dom": "swlaw.edu",
  "lat": "34.0616081",
  "lng": "-118.2881398"
}, {
  "name": "Stanbridge College",
  "dom": "stanbridge.edu",
  "lat": "33.6788293",
  "lng": "-117.857653"
}, {
  "name": "Stanford University",
  "dom": "WWW.STANFORD.EDU",
  "lat": "37.42410599999999",
  "lng": "-122.1660756"
}, {
  "name": "Stanford University Residency in Clinical Psychology",
  "dom": "stanford.edu",
  "lat": "37.42826410000001",
  "lng": "-122.1688453"
}, {
  "name": "Stanton University",
  "dom": "stantonuniversity.com",
  "lat": "33.7788786",
  "lng": "-117.957989"
}, {
  "name": "Starr King School for Ministry",
  "dom": "sksm.edu",
  "lat": "37.8770606",
  "lng": "-122.2617935"
}, {
  "name": "Summit College",
  "dom": "summitcollege.com",
  "lat": "34.0562495",
  "lng": "-117.3045087"
}, {
  "name": "Sunnyvale - Cupertino Adult & Community Education",
  "dom": "ace.fuhsd.org",
  "lat": "37.35257989999999",
  "lng": "-122.037902"
}, {
  "name": "Taft College",
  "dom": "taftcollege.edu",
  "lat": "35.1495779",
  "lng": "-119.4590065"
}, {
  "name": "Taft Law School",
  "dom": "TaftU.edu",
  "lat": "33.6975074",
  "lng": "-117.9142105"
}, {
  "name": "Tarzana Treatment Centers Psychology Internship",
  "dom": "tarzanatc.org",
  "lat": "34.179256",
  "lng": "-118.539776"
}, {
  "name": "The Art Institute of California - Hollywood",
  "dom": "aicdc.artinstitutes.edu",
  "lat": "34.1667106",
  "lng": "-118.375128"
}, {
  "name": "The Art Institute of California - Los Angeles",
  "dom": "aila.artinstitutes.edu",
  "lat": "34.019033",
  "lng": "-118.451988"
}, {
  "name": "The Art Institute of California - San Diego",
  "dom": "aica.artinstitutes.edu",
  "lat": "32.7782916",
  "lng": "-117.1554309"
}, {
  "name": "The Colburn School",
  "dom": "colburnschool.edu",
  "lat": "34.0541158",
  "lng": "-118.2497675"
}, {
  "name": "The English Center",
  "dom": "eciw.org",
  "lat": "37.7943721",
  "lng": "-122.2757206"
}, {
  "name": "The Fab School",
  "dom": "thefabschool.com",
  "lat": "33.917564",
  "lng": "-117.290656"
}, {
  "name": "The Master's College and Seminary",
  "dom": "masters.edu",
  "lat": "34.3816708",
  "lng": "-118.5203483"
}, {
  "name": "The Montessori World Educational Institute",
  "dom": "montessoriworld.org",
  "lat": "35.5457001",
  "lng": "-121.0845393"
}, {
  "name": "The National Hispanic University",
  "dom": "nhu.edu",
  "lat": "37.3590501",
  "lng": "-121.8160076"
}, {
  "name": "The Wright Institute",
  "dom": "wrightinst.edu",
  "lat": "37.8682532",
  "lng": "-122.2530905"
}, {
  "name": "Theatre of Arts",
  "dom": "toa.edu",
  "lat": "34.1016863",
  "lng": "-118.3377404"
}, {
  "name": "Thomas Aquinas College",
  "dom": "thomasaquinas.edu",
  "lat": "34.4270483",
  "lng": "-119.0901957"
}, {
  "name": "Thomas Jefferson School of Law",
  "dom": "tjsl.edu",
  "lat": "32.746267",
  "lng": "-117.189396"
}, {
  "name": "Transworld Schools",
  "dom": "transworldschools.com",
  "lat": "37.7886583",
  "lng": "-122.4121142"
}, {
  "name": "Travel University International",
  "dom": "WWW.TRAVELUNIVERSITY.EDU",
  "lat": "32.813837",
  "lng": "-117.117771"
}, {
  "name": "Travel and Trade Career Institute",
  "dom": "GOTTCI.COM",
  "lat": "33.8342981",
  "lng": "-118.1890972"
}, {
  "name": "Tri-Cities Regional Occupational Program",
  "dom": "tcrop.k12.ca.us",
  "lat": "33.968499",
  "lng": "-118.045027"
}, {
  "name": "Truck Marketing Institute",
  "dom": "tmitraining.com",
  "lat": "34.3987539",
  "lng": "-119.516497"
}, {
  "name": "Tulare Adult School",
  "dom": "tulare.k12.ca.us",
  "lat": "36.2145059",
  "lng": "-119.3590867"
}, {
  "name": "Twin Rivers Adult School",
  "dom": "twinriversusd.org",
  "lat": "38.6507967",
  "lng": "-121.3893699"
}, {
  "name": "UEI College - Fresno",
  "dom": "mced.com",
  "lat": "36.76875",
  "lng": "-119.725612"
}, {
  "name": "United Medical Institute",
  "dom": "unitedmedicalinstitute.com",
  "lat": "38.6651533",
  "lng": "-121.3417243"
}, {
  "name": "United Truck & Car Driving School",
  "dom": "drivetrucks.com",
  "lat": "32.7685419",
  "lng": "-117.138163"
}, {
  "name": "Unitek College - Fremont",
  "dom": "unitekcollege.com",
  "lat": "37.50904",
  "lng": "-121.96176"
},